2025-11-18 17:46:46 [INFO] Logger initialized.
2025-11-18 17:46:46 [INFO] Log file: logs/drone_log_2025-11-18_17-46-46.log
2025-11-18 17:46:52 [INFO] Connected to FC on /dev/ttyACM0@115200
2025-11-18 17:46:52 [INFO] Checking pre-arm conditions...
2025-11-18 17:46:52 [INFO] Saved HOME: lat=17.4481098, lon=78.3809756, alt=0.076
2025-11-18 17:46:52 [INFO] Arming motors...
2025-11-18 17:46:52 [INFO] Waiting for motors to arm...
2025-11-18 17:46:52 [DEBUG] MAVLINK [COMMAND_ACK] COMMAND_ACK {command : 176, result : 0, progress : 0, result_param2 : 0, target_system : 255, target_component : 0}
2025-11-18 17:46:52 [DEBUG] MAVLINK [COMMAND_ACK] COMMAND_ACK {command : 400, result : 0, progress : 0, result_param2 : 0, target_system : 255, target_component : 0}
2025-11-18 17:46:52 [DEBUG] MAVLINK [GPS_GLOBAL_ORIGIN] GPS_GLOBAL_ORIGIN {latitude : 174481120, longitude : 783810011, altitude : 580800, time_usec : 554666193}
2025-11-18 17:46:52 [DEBUG] MAVLINK [HOME_POSITION] HOME_POSITION {latitude : 174481098, longitude : 783809756, altitude : 579780, x : -0.24490146338939667, y : -2.708022117614746, z : 1.0199999809265137, q : [nan, nan, nan, nan], approach_x : 0.0, approach_y : 0.0, approach_z : 0.0, time_usec : 554666217}
2025-11-18 17:46:52 [DEBUG] MAVLINK [STATUSTEXT] STATUSTEXT {severity : 4, text : Warning: Arming Checks Disabled, id : 0, chunk_seq : 0}
2025-11-18 17:46:52 [DEBUG] MAVLINK [HEARTBEAT] HEARTBEAT {type : 6, autopilot : 8, base_mode : 192, custom_mode : 0, system_status : 4, mavlink_version : 3}
2025-11-18 17:46:52 [DEBUG] MAVLINK [AHRS] AHRS {omegaIx : 0.00021399695833679289, omegaIy : 0.00010227562597719952, omegaIz : -0.00236504222266376, accel_weight : 0.0, renorm_val : 0.0, error_rp : 0.0013098720228299499, error_yaw : 0.0078631192445755}
2025-11-18 17:46:52 [DEBUG] MAVLINK [AHRS2] AHRS2 {roll : -0.04666157066822052, pitch : -0.0009951477404683828, yaw : 1.8542503118515015, altitude : 578.5299682617188, lat : 174481097, lng : 783809760}
2025-11-18 17:46:52 [DEBUG] MAVLINK [ATTITUDE] ATTITUDE {time_boot_ms : 554905, roll : -0.03166331350803375, pitch : -0.004090740345418453, yaw : 1.8984949588775635, rollspeed : -0.006167395040392876, pitchspeed : 0.0030113649554550648, yawspeed : -0.006535807624459267}
2025-11-18 17:46:52 [DEBUG] MAVLINK [GLOBAL_POSITION_INT] GLOBAL_POSITION_INT {time_boot_ms : 554905, lat : 174481098, lon : 783809756, alt : 579760, relative_alt : -11, vx : 3, vy : 0, vz : -1, hdg : 10877}
2025-11-18 17:46:52 [DEBUG] MAVLINK [VFR_HUD] VFR_HUD {airspeed : 0.034648649394512177, groundspeed : 0.031836364418268204, heading : 108, throttle : 0, alt : 579.760009765625, climb : 0.013673873618245125}
2025-11-18 17:46:52 [DEBUG] MAVLINK [SYS_STATUS] SYS_STATUS {onboard_control_sensors_present : 1399913519, onboard_control_sensors_enabled : 1130429487, onboard_control_sensors_health : 1198586927, load : 318, voltage_battery : 10955, current_battery : 2, battery_remaining : 95, drop_rate_comm : 0, errors_comm : 0, errors_count1 : 0, errors_count2 : 0, errors_count3 : 0, errors_count4 : 0}
2025-11-18 17:46:52 [DEBUG] MAVLINK [POWER_STATUS] POWER_STATUS {Vcc : 5277, Vservo : 5026, flags : 5}
2025-11-18 17:46:52 [DEBUG] MAVLINK [MEMINFO] MEMINFO {brkval : 0, freemem : 65535, freemem32 : 571776}
2025-11-18 17:46:52 [DEBUG] MAVLINK [NAV_CONTROLLER_OUTPUT] NAV_CONTROLLER_OUTPUT {nav_roll : -0.00024786245194263756, nav_pitch : -0.00030535351834259927, nav_bearing : 108, target_bearing : 0, wp_dist : 0, alt_error : 0.0, aspd_error : 0.0, xtrack_error : 0.0}
2025-11-18 17:46:52 [DEBUG] MAVLINK [MISSION_CURRENT] MISSION_CURRENT {seq : 0, total : 0, mission_state : 1, mission_mode : 0}
2025-11-18 17:46:52 [DEBUG] MAVLINK [SERVO_OUTPUT_RAW] SERVO_OUTPUT_RAW {time_usec : 554905896, port : 0, servo1_raw : 1000, servo2_raw : 1000, servo3_raw : 1000, servo4_raw : 1000, servo5_raw : 0, servo6_raw : 0, servo7_raw : 0, servo8_raw : 0, servo9_raw : 0, servo10_raw : 0, servo11_raw : 0, servo12_raw : 0, servo13_raw : 0, servo14_raw : 0, servo15_raw : 0, servo16_raw : 0}
2025-11-18 17:46:52 [DEBUG] MAVLINK [RC_CHANNELS] RC_CHANNELS {time_boot_ms : 554905, chancount : 0, chan1_raw : 0, chan2_raw : 0, chan3_raw : 0, chan4_raw : 0, chan5_raw : 0, chan6_raw : 0, chan7_raw : 0, chan8_raw : 0, chan9_raw : 0, chan10_raw : 0, chan11_raw : 0, chan12_raw : 0, chan13_raw : 0, chan14_raw : 0, chan15_raw : 0, chan16_raw : 0, chan17_raw : 0, chan18_raw : 0, rssi : 255}
2025-11-18 17:46:52 [DEBUG] MAVLINK [RAW_IMU] RAW_IMU {time_usec : 554905931, xacc : 16, yacc : 72, zacc : -998, xgyro : -6, ygyro : 2, zgyro : -4, xmag : -91, ymag : -298, zmag : 99, id : 0, temperature : 4480}
2025-11-18 17:46:52 [DEBUG] MAVLINK [SCALED_IMU2] SCALED_IMU2 {time_boot_ms : 554905, xacc : 18, yacc : 68, zacc : -997, xgyro : -4, ygyro : 3, zgyro : -6, xmag : -168, ymag : -352, zmag : 157, temperature : 4856}
2025-11-18 17:46:52 [DEBUG] MAVLINK [SCALED_IMU3] SCALED_IMU3 {time_boot_ms : 554905, xacc : 25, yacc : 61, zacc : -999, xgyro : -7, ygyro : 4, zgyro : -7, xmag : 0, ymag : 0, zmag : 0, temperature : 4740}
2025-11-18 17:46:52 [DEBUG] MAVLINK [SCALED_PRESSURE] SCALED_PRESSURE {time_boot_ms : 554905, press_abs : 949.1300048828125, press_diff : 0.0, temperature : 4659, temperature_press_diff : 0}
2025-11-18 17:46:52 [DEBUG] MAVLINK [SCALED_PRESSURE2] SCALED_PRESSURE2 {time_boot_ms : 554908, press_abs : 949.2088012695312, press_diff : 0.0, temperature : 4352, temperature_press_diff : 0}
2025-11-18 17:46:52 [DEBUG] MAVLINK [GPS_RAW_INT] GPS_RAW_INT {time_usec : 554712000, fix_type : 4, lat : 174481097, lon : 783809760, alt : 573110, eph : 78, epv : 139, vel : 1, cog : 9919, satellites_visible : 17, alt_ellipsoid : 499016, h_acc : 1376, v_acc : 2421, vel_acc : 388, hdg_acc : 0, yaw : 0}
2025-11-18 17:46:52 [DEBUG] MAVLINK [SYSTEM_TIME] SYSTEM_TIME {time_unix_usec : 1763468212796024, time_boot_ms : 554908}
2025-11-18 17:46:52 [DEBUG] MAVLINK [WIND] WIND {direction : -180.0, speed : 0.0, speed_z : 0.0}
2025-11-18 17:46:52 [DEBUG] MAVLINK [TERRAIN_REPORT] TERRAIN_REPORT {lat : 174481098, lon : 783809756, spacing : 100, terrain_height : 579.7799682617188, current_height : -0.019981220364570618, pending : 0, loaded : 504}
2025-11-18 17:46:52 [DEBUG] MAVLINK [EKF_STATUS_REPORT] EKF_STATUS_REPORT {flags : 831, velocity_variance : 0.031602632254362106, pos_horiz_variance : 0.004105302505195141, pos_vert_variance : 0.016389677301049232, compass_variance : 0.024244120344519615, terrain_alt_variance : 0.0, airspeed_variance : 0.0}
2025-11-18 17:46:52 [DEBUG] MAVLINK [LOCAL_POSITION_NED] LOCAL_POSITION_NED {time_boot_ms : 554908, x : -0.2382763773202896, y : -2.7069268226623535, z : 1.0317686796188354, vx : 0.031065979972481728, vy : 0.007321980316191912, vz : -0.013649260625243187}
2025-11-18 17:46:52 [DEBUG] MAVLINK [VIBRATION] VIBRATION {time_usec : 554908333, vibration_x : 0.03961151838302612, vibration_y : 0.03967096284031868, vibration_z : 0.008794589899480343, clipping_0 : 0, clipping_1 : 0, clipping_2 : 0}
2025-11-18 17:46:52 [DEBUG] MAVLINK [BATTERY_STATUS] BATTERY_STATUS {id : 0, battery_function : 0, type : 0, temperature : 32767, voltages : [10955, 65535, 65535, 65535, 65535, 65535, 65535, 65535, 65535, 65535], current_battery : 2, current_consumed : 217, energy_consumed : 78, battery_remaining : 95, time_remaining : 0, charge_state : 1, voltages_ext : [0, 0, 0, 0], mode : 0, fault_bitmask : 0}
2025-11-18 17:46:52 [DEBUG] MAVLINK [MCU_STATUS] MCU_STATUS {id : 0, MCU_temperature : 4519, MCU_voltage : 3286, MCU_voltage_min : 3280, MCU_voltage_max : 3294}
2025-11-18 17:46:53 [DEBUG] MAVLINK [HEARTBEAT] HEARTBEAT {type : 2, autopilot : 3, base_mode : 217, custom_mode : 4, system_status : 5, mavlink_version : 3}
2025-11-18 17:46:53 [DEBUG] MAVLINK [AHRS] AHRS {omegaIx : 0.00022169231669977307, omegaIy : 0.00011106355668744072, omegaIz : -0.0023732520639896393, accel_weight : 0.0, renorm_val : 0.0, error_rp : 0.00871710292994976, error_yaw : 0.007268729154020548}
2025-11-18 17:46:53 [DEBUG] MAVLINK [AHRS2] AHRS2 {roll : -0.04606422036886215, pitch : -0.00031033114646561444, yaw : 1.853729486465454, altitude : 578.6300048828125, lat : 174481096, lng : 783809760}
2025-11-18 17:46:53 [DEBUG] MAVLINK [ATTITUDE] ATTITUDE {time_boot_ms : 555155, roll : -0.031443312764167786, pitch : -0.004091471433639526, yaw : 1.8977198600769043, rollspeed : 0.005217976402491331, pitchspeed : -0.00253378227353096, yawspeed : -0.005169627256691456}
2025-11-18 17:46:53 [DEBUG] MAVLINK [GLOBAL_POSITION_INT] GLOBAL_POSITION_INT {time_boot_ms : 555155, lat : 174481098, lon : 783809756, alt : 579750, relative_alt : -23, vx : 2, vy : 0, vz : 0, hdg : 10873}
2025-11-18 17:46:53 [DEBUG] MAVLINK [VFR_HUD] VFR_HUD {airspeed : 0.03165816515684128, groundspeed : 0.030228108167648315, heading : 108, throttle : 0, alt : 579.75, climb : 0.009407483972609043}
2025-11-18 17:46:53 [DEBUG] MAVLINK [SYS_STATUS] SYS_STATUS {onboard_control_sensors_present : 1399913519, onboard_control_sensors_enabled : 1130429487, onboard_control_sensors_health : 1198586927, load : 350, voltage_battery : 10953, current_battery : 1, battery_remaining : 95, drop_rate_comm : 0, errors_comm : 0, errors_count1 : 0, errors_count2 : 0, errors_count3 : 0, errors_count4 : 0}
2025-11-18 17:46:53 [DEBUG] MAVLINK [POWER_STATUS] POWER_STATUS {Vcc : 5271, Vservo : 5021, flags : 5}
2025-11-18 17:46:53 [DEBUG] MAVLINK [MEMINFO] MEMINFO {brkval : 0, freemem : 65535, freemem32 : 570384}
2025-11-18 17:46:53 [DEBUG] MAVLINK [NAV_CONTROLLER_OUTPUT] NAV_CONTROLLER_OUTPUT {nav_roll : -0.00024786233552731574, nav_pitch : -0.00030535340192727745, nav_bearing : 108, target_bearing : 0, wp_dist : 0, alt_error : 0.0, aspd_error : 0.0, xtrack_error : 0.0}
2025-11-18 17:46:53 [DEBUG] MAVLINK [MISSION_CURRENT] MISSION_CURRENT {seq : 0, total : 0, mission_state : 1, mission_mode : 0}
2025-11-18 17:46:53 [DEBUG] MAVLINK [SERVO_OUTPUT_RAW] SERVO_OUTPUT_RAW {time_usec : 555158064, port : 0, servo1_raw : 1000, servo2_raw : 1000, servo3_raw : 1000, servo4_raw : 1000, servo5_raw : 0, servo6_raw : 0, servo7_raw : 0, servo8_raw : 0, servo9_raw : 0, servo10_raw : 0, servo11_raw : 0, servo12_raw : 0, servo13_raw : 0, servo14_raw : 0, servo15_raw : 0, servo16_raw : 0}
2025-11-18 17:46:53 [DEBUG] MAVLINK [RC_CHANNELS] RC_CHANNELS {time_boot_ms : 555158, chancount : 0, chan1_raw : 0, chan2_raw : 0, chan3_raw : 0, chan4_raw : 0, chan5_raw : 0, chan6_raw : 0, chan7_raw : 0, chan8_raw : 0, chan9_raw : 0, chan10_raw : 0, chan11_raw : 0, chan12_raw : 0, chan13_raw : 0, chan14_raw : 0, chan15_raw : 0, chan16_raw : 0, chan17_raw : 0, chan18_raw : 0, rssi : 255}
2025-11-18 17:46:53 [DEBUG] MAVLINK [RAW_IMU] RAW_IMU {time_usec : 555158125, xacc : 14, yacc : 73, zacc : -998, xgyro : 4, ygyro : -2, zgyro : -2, xmag : -91, ymag : -297, zmag : 100, id : 0, temperature : 4480}
2025-11-18 17:46:53 [DEBUG] MAVLINK [SCALED_IMU2] SCALED_IMU2 {time_boot_ms : 555158, xacc : 16, yacc : 71, zacc : -998, xgyro : 7, ygyro : -1, zgyro : -3, xmag : -161, ymag : -363, zmag : 148, temperature : 4856}
2025-11-18 17:46:53 [DEBUG] MAVLINK [SCALED_IMU3] SCALED_IMU3 {time_boot_ms : 555158, xacc : 23, yacc : 63, zacc : -1000, xgyro : 3, ygyro : -3, zgyro : -4, xmag : 0, ymag : 0, zmag : 0, temperature : 4740}
2025-11-18 17:46:53 [DEBUG] MAVLINK [SCALED_PRESSURE] SCALED_PRESSURE {time_boot_ms : 555158, press_abs : 949.1189575195312, press_diff : 0.0, temperature : 4659, temperature_press_diff : 0}
2025-11-18 17:46:53 [DEBUG] MAVLINK [SCALED_PRESSURE2] SCALED_PRESSURE2 {time_boot_ms : 555158, press_abs : 949.2091064453125, press_diff : 0.0, temperature : 4352, temperature_press_diff : 0}
2025-11-18 17:46:53 [DEBUG] MAVLINK [GPS_RAW_INT] GPS_RAW_INT {time_usec : 555112000, fix_type : 4, lat : 174481096, lon : 783809760, alt : 573080, eph : 78, epv : 139, vel : 5, cog : 9919, satellites_visible : 17, alt_ellipsoid : 498985, h_acc : 1373, v_acc : 2417, vel_acc : 385, hdg_acc : 0, yaw : 0}
2025-11-18 17:46:53 [DEBUG] MAVLINK [SYSTEM_TIME] SYSTEM_TIME {time_unix_usec : 1763468213046096, time_boot_ms : 555158}
2025-11-18 17:46:53 [DEBUG] MAVLINK [WIND] WIND {direction : -180.0, speed : 0.0, speed_z : 0.0}
2025-11-18 17:46:53 [DEBUG] MAVLINK [TERRAIN_REPORT] TERRAIN_REPORT {lat : 174481098, lon : 783809756, spacing : 100, terrain_height : 579.7799682617188, current_height : -0.0299812201410532, pending : 0, loaded : 504}
2025-11-18 17:46:53 [DEBUG] MAVLINK [EKF_STATUS_REPORT] EKF_STATUS_REPORT {flags : 831, velocity_variance : 0.04151341691613197, pos_horiz_variance : 0.004323347471654415, pos_vert_variance : 0.005309913773089647, compass_variance : 0.02494719624519348, terrain_alt_variance : 0.0, airspeed_variance : 0.0}
2025-11-18 17:46:53 [DEBUG] MAVLINK [LOCAL_POSITION_NED] LOCAL_POSITION_NED {time_boot_ms : 555160, x : -0.23753073811531067, y : -2.7054128646850586, z : 1.043363332748413, vx : 0.029495518654584885, vy : 0.005550436209887266, vz : -0.009458566084504128}
2025-11-18 17:46:53 [DEBUG] MAVLINK [VIBRATION] VIBRATION {time_usec : 555160389, vibration_x : 0.02450675144791603, vibration_y : 0.0379200279712677, vibration_z : 0.008803308010101318, clipping_0 : 0, clipping_1 : 0, clipping_2 : 0}
2025-11-18 17:46:53 [DEBUG] MAVLINK [BATTERY_STATUS] BATTERY_STATUS {id : 0, battery_function : 0, type : 0, temperature : 32767, voltages : [10953, 65535, 65535, 65535, 65535, 65535, 65535, 65535, 65535, 65535], current_battery : 1, current_consumed : 218, energy_consumed : 78, battery_remaining : 95, time_remaining : 0, charge_state : 1, voltages_ext : [0, 0, 0, 0], mode : 0, fault_bitmask : 0}
2025-11-18 17:46:53 [DEBUG] MAVLINK [MCU_STATUS] MCU_STATUS {id : 0, MCU_temperature : 4519, MCU_voltage : 3286, MCU_voltage_min : 3276, MCU_voltage_max : 3299}
2025-11-18 17:46:53 [DEBUG] MAVLINK [HEARTBEAT] HEARTBEAT {type : 27, autopilot : 8, base_mode : 4, custom_mode : 0, system_status : 4, mavlink_version : 3}
2025-11-18 17:46:53 [DEBUG] MAVLINK [AHRS] AHRS {omegaIx : 0.0002235803403891623, omegaIy : 0.00011315118172205985, omegaIz : -0.0023768008686602116, accel_weight : 0.0, renorm_val : 0.0, error_rp : 0.009792540222406387, error_yaw : 0.009522656910121441}
2025-11-18 17:46:53 [DEBUG] MAVLINK [AHRS2] AHRS2 {roll : -0.04665833339095116, pitch : 0.0002631934767123312, yaw : 1.8532965183258057, altitude : 578.6499633789062, lat : 174481096, lng : 783809761}
2025-11-18 17:46:53 [DEBUG] MAVLINK [ATTITUDE] ATTITUDE {time_boot_ms : 555405, roll : -0.03149643912911415, pitch : -0.0038985367864370346, yaw : 1.8969690799713135, rollspeed : -0.0017850813455879688, pitchspeed : 0.0007300230208784342, yawspeed : -0.0029246474150568247}
2025-11-18 17:46:53 [DEBUG] MAVLINK [GLOBAL_POSITION_INT] GLOBAL_POSITION_INT {time_boot_ms : 555405, lat : 174481098, lon : 783809756, alt : 579740, relative_alt : -34, vx : 2, vy : 0, vz : 0, hdg : 10868}
2025-11-18 17:46:53 [DEBUG] MAVLINK [VFR_HUD] VFR_HUD {airspeed : 0.02867167815566063, groundspeed : 0.028262145817279816, heading : 108, throttle : 0, alt : 579.739990234375, climb : 0.004828684031963348}
2025-11-18 17:46:53 [DEBUG] MAVLINK [SYS_STATUS] SYS_STATUS {onboard_control_sensors_present : 1399913519, onboard_control_sensors_enabled : 1130429487, onboard_control_sensors_health : 1198586927, load : 330, voltage_battery : 10956, current_battery : 2, battery_remaining : 95, drop_rate_comm : 0, errors_comm : 0, errors_count1 : 0, errors_count2 : 0, errors_count3 : 0, errors_count4 : 0}
2025-11-18 17:46:53 [DEBUG] MAVLINK [POWER_STATUS] POWER_STATUS {Vcc : 5272, Vservo : 5018, flags : 5}
2025-11-18 17:46:53 [DEBUG] MAVLINK [MEMINFO] MEMINFO {brkval : 0, freemem : 65535, freemem32 : 563624}
2025-11-18 17:46:53 [DEBUG] MAVLINK [NAV_CONTROLLER_OUTPUT] NAV_CONTROLLER_OUTPUT {nav_roll : -0.00024786233552731574, nav_pitch : -0.00030535354744642973, nav_bearing : 108, target_bearing : 0, wp_dist : 0, alt_error : 0.0, aspd_error : 0.0, xtrack_error : 0.0}
2025-11-18 17:46:53 [DEBUG] MAVLINK [MISSION_CURRENT] MISSION_CURRENT {seq : 0, total : 0, mission_state : 1, mission_mode : 0}
2025-11-18 17:46:53 [DEBUG] MAVLINK [SERVO_OUTPUT_RAW] SERVO_OUTPUT_RAW {time_usec : 555405851, port : 0, servo1_raw : 1000, servo2_raw : 1000, servo3_raw : 1000, servo4_raw : 1000, servo5_raw : 0, servo6_raw : 0, servo7_raw : 0, servo8_raw : 0, servo9_raw : 0, servo10_raw : 0, servo11_raw : 0, servo12_raw : 0, servo13_raw : 0, servo14_raw : 0, servo15_raw : 0, servo16_raw : 0}
2025-11-18 17:46:53 [DEBUG] MAVLINK [RC_CHANNELS] RC_CHANNELS {time_boot_ms : 555405, chancount : 0, chan1_raw : 0, chan2_raw : 0, chan3_raw : 0, chan4_raw : 0, chan5_raw : 0, chan6_raw : 0, chan7_raw : 0, chan8_raw : 0, chan9_raw : 0, chan10_raw : 0, chan11_raw : 0, chan12_raw : 0, chan13_raw : 0, chan14_raw : 0, chan15_raw : 0, chan16_raw : 0, chan17_raw : 0, chan18_raw : 0, rssi : 255}
2025-11-18 17:46:53 [DEBUG] MAVLINK [RAW_IMU] RAW_IMU {time_usec : 555408126, xacc : 9, yacc : 68, zacc : -998, xgyro : -1, ygyro : 0, zgyro : 0, xmag : -93, ymag : -297, zmag : 99, id : 0, temperature : 4480}
2025-11-18 17:46:53 [DEBUG] MAVLINK [SCALED_IMU2] SCALED_IMU2 {time_boot_ms : 555408, xacc : 13, yacc : 64, zacc : -999, xgyro : 0, ygyro : 0, zgyro : -2, xmag : -168, ymag : -360, zmag : 171, temperature : 4855}
2025-11-18 17:46:53 [DEBUG] MAVLINK [SCALED_IMU3] SCALED_IMU3 {time_boot_ms : 555408, xacc : 19, yacc : 56, zacc : -1000, xgyro : -3, ygyro : 0, zgyro : -3, xmag : 0, ymag : 0, zmag : 0, temperature : 4740}
2025-11-18 17:46:53 [DEBUG] MAVLINK [SCALED_PRESSURE] SCALED_PRESSURE {time_boot_ms : 555408, press_abs : 949.1154174804688, press_diff : 0.0, temperature : 4658, temperature_press_diff : 0}
2025-11-18 17:46:53 [DEBUG] MAVLINK [SCALED_PRESSURE2] SCALED_PRESSURE2 {time_boot_ms : 555408, press_abs : 949.2169189453125, press_diff : 0.0, temperature : 4353, temperature_press_diff : 0}
2025-11-18 17:46:53 [DEBUG] MAVLINK [GPS_RAW_INT] GPS_RAW_INT {time_usec : 555312000, fix_type : 4, lat : 174481096, lon : 783809761, alt : 573070, eph : 78, epv : 139, vel : 2, cog : 9919, satellites_visible : 17, alt_ellipsoid : 498975, h_acc : 1371, v_acc : 2414, vel_acc : 378, hdg_acc : 0, yaw : 0}
2025-11-18 17:46:53 [DEBUG] MAVLINK [SYSTEM_TIME] SYSTEM_TIME {time_unix_usec : 1763468213296128, time_boot_ms : 555408}
2025-11-18 17:46:53 [DEBUG] MAVLINK [WIND] WIND {direction : -180.0, speed : 0.0, speed_z : 0.0}
2025-11-18 17:46:53 [DEBUG] MAVLINK [TERRAIN_REPORT] TERRAIN_REPORT {lat : 174481098, lon : 783809756, spacing : 100, terrain_height : 579.7799682617188, current_height : -0.03998121991753578, pending : 0, loaded : 504}
2025-11-18 17:46:53 [DEBUG] MAVLINK [EKF_STATUS_REPORT] EKF_STATUS_REPORT {flags : 831, velocity_variance : 0.018936116248369217, pos_horiz_variance : 0.006014453247189522, pos_vert_variance : 0.00033364270348101854, compass_variance : 0.02246754616498947, terrain_alt_variance : 0.0, airspeed_variance : 0.0}
2025-11-18 17:46:53 [DEBUG] MAVLINK [LOCAL_POSITION_NED] LOCAL_POSITION_NED {time_boot_ms : 555408, x : -0.23510213196277618, y : -2.7091286182403564, z : 1.0548313856124878, vx : 0.028347795829176903, vy : 0.0005762088694609702, vz : -0.004817018751055002}
2025-11-18 17:46:53 [DEBUG] MAVLINK [VIBRATION] VIBRATION {time_usec : 555408399, vibration_x : 0.020250558853149414, vibration_y : 0.026318112388253212, vibration_z : 0.008481473661959171, clipping_0 : 0, clipping_1 : 0, clipping_2 : 0}
2025-11-18 17:46:53 [DEBUG] MAVLINK [BATTERY_STATUS] BATTERY_STATUS {id : 0, battery_function : 0, type : 0, temperature : 32767, voltages : [10956, 65535, 65535, 65535, 65535, 65535, 65535, 65535, 65535, 65535], current_battery : 2, current_consumed : 218, energy_consumed : 78, battery_remaining : 95, time_remaining : 0, charge_state : 1, voltages_ext : [0, 0, 0, 0], mode : 0, fault_bitmask : 0}
2025-11-18 17:46:53 [DEBUG] MAVLINK [MCU_STATUS] MCU_STATUS {id : 0, MCU_temperature : 4523, MCU_voltage : 3286, MCU_voltage_min : 3280, MCU_voltage_max : 3292}
2025-11-18 17:46:53 [DEBUG] MAVLINK [AHRS] AHRS {omegaIx : 0.0002227550867246464, omegaIy : 0.00011603056191233918, omegaIz : -0.0023844591341912746, accel_weight : 0.0, renorm_val : 0.0, error_rp : 0.009452421218156815, error_yaw : 0.009173520840704441}
2025-11-18 17:46:53 [DEBUG] MAVLINK [AHRS2] AHRS2 {roll : -0.04667335003614426, pitch : -3.4168311685789376e-05, yaw : 1.8530783653259277, altitude : 578.6799926757812, lat : 174481097, lng : 783809762}
2025-11-18 17:46:53 [DEBUG] MAVLINK [ATTITUDE] ATTITUDE {time_boot_ms : 555655, roll : -0.03140804544091225, pitch : -0.0038763144984841347, yaw : 1.8964215517044067, rollspeed : -0.00023672184033785015, pitchspeed : 0.0008613542304374278, yawspeed : 0.00018999935127794743}
2025-11-18 17:46:53 [DEBUG] MAVLINK [GLOBAL_POSITION_INT] GLOBAL_POSITION_INT {time_boot_ms : 555655, lat : 174481099, lon : 783809756, alt : 579730, relative_alt : -43, vx : 2, vy : 0, vz : 0, hdg : 10865}
2025-11-18 17:46:53 [DEBUG] MAVLINK [VFR_HUD] VFR_HUD {airspeed : 0.02796079032123089, groundspeed : 0.027897154912352562, heading : 108, throttle : 0, alt : 579.72998046875, climb : 0.0018853649962693453}
2025-11-18 17:46:53 [DEBUG] MAVLINK [SYS_STATUS] SYS_STATUS {onboard_control_sensors_present : 1399913519, onboard_control_sensors_enabled : 1130429487, onboard_control_sensors_health : 1198586927, load : 324, voltage_battery : 10952, current_battery : 1, battery_remaining : 95, drop_rate_comm : 0, errors_comm : 0, errors_count1 : 0, errors_count2 : 0, errors_count3 : 0, errors_count4 : 0}
2025-11-18 17:46:53 [DEBUG] MAVLINK [POWER_STATUS] POWER_STATUS {Vcc : 5261, Vservo : 5023, flags : 5}
2025-11-18 17:46:53 [DEBUG] MAVLINK [MEMINFO] MEMINFO {brkval : 0, freemem : 65535, freemem32 : 563624}
2025-11-18 17:46:53 [DEBUG] MAVLINK [NAV_CONTROLLER_OUTPUT] NAV_CONTROLLER_OUTPUT {nav_roll : -0.0002478623064234853, nav_pitch : -0.00030535360565409064, nav_bearing : 108, target_bearing : 0, wp_dist : 0, alt_error : 0.0, aspd_error : 0.0, xtrack_error : 0.0}
2025-11-18 17:46:53 [DEBUG] MAVLINK [MISSION_CURRENT] MISSION_CURRENT {seq : 0, total : 0, mission_state : 1, mission_mode : 0}
2025-11-18 17:46:53 [DEBUG] MAVLINK [SERVO_OUTPUT_RAW] SERVO_OUTPUT_RAW {time_usec : 555655929, port : 0, servo1_raw : 1000, servo2_raw : 1000, servo3_raw : 1000, servo4_raw : 1000, servo5_raw : 0, servo6_raw : 0, servo7_raw : 0, servo8_raw : 0, servo9_raw : 0, servo10_raw : 0, servo11_raw : 0, servo12_raw : 0, servo13_raw : 0, servo14_raw : 0, servo15_raw : 0, servo16_raw : 0}
2025-11-18 17:46:53 [DEBUG] MAVLINK [RC_CHANNELS] RC_CHANNELS {time_boot_ms : 555655, chancount : 0, chan1_raw : 0, chan2_raw : 0, chan3_raw : 0, chan4_raw : 0, chan5_raw : 0, chan6_raw : 0, chan7_raw : 0, chan8_raw : 0, chan9_raw : 0, chan10_raw : 0, chan11_raw : 0, chan12_raw : 0, chan13_raw : 0, chan14_raw : 0, chan15_raw : 0, chan16_raw : 0, chan17_raw : 0, chan18_raw : 0, rssi : 255}
2025-11-18 17:46:53 [DEBUG] MAVLINK [RAW_IMU] RAW_IMU {time_usec : 555655959, xacc : 15, yacc : 72, zacc : -999, xgyro : 0, ygyro : 0, zgyro : 2, xmag : -91, ymag : -298, zmag : 100, id : 0, temperature : 4480}
2025-11-18 17:46:53 [DEBUG] MAVLINK [SCALED_IMU2] SCALED_IMU2 {time_boot_ms : 555658, xacc : 17, yacc : 68, zacc : -998, xgyro : 1, ygyro : 1, zgyro : 1, xmag : -157, ymag : -363, zmag : 156, temperature : 4855}
2025-11-18 17:46:53 [DEBUG] MAVLINK [SCALED_IMU3] SCALED_IMU3 {time_boot_ms : 555658, xacc : 24, yacc : 62, zacc : -1000, xgyro : 0, ygyro : 0, zgyro : 1, xmag : 0, ymag : 0, zmag : 0, temperature : 4740}
2025-11-18 17:46:53 [DEBUG] MAVLINK [SCALED_PRESSURE] SCALED_PRESSURE {time_boot_ms : 555658, press_abs : 949.1122436523438, press_diff : 0.0, temperature : 4659, temperature_press_diff : 0}
2025-11-18 17:46:53 [DEBUG] MAVLINK [SCALED_PRESSURE2] SCALED_PRESSURE2 {time_boot_ms : 555658, press_abs : 949.186279296875, press_diff : 0.0, temperature : 4352, temperature_press_diff : 0}
2025-11-18 17:46:53 [DEBUG] MAVLINK [GPS_RAW_INT] GPS_RAW_INT {time_usec : 555512000, fix_type : 4, lat : 174481097, lon : 783809762, alt : 573080, eph : 78, epv : 139, vel : 4, cog : 9919, satellites_visible : 17, alt_ellipsoid : 498985, h_acc : 1370, v_acc : 2412, vel_acc : 363, hdg_acc : 0, yaw : 0}
2025-11-18 17:46:53 [INFO] Waiting for motors to arm...
2025-11-18 17:46:53 [DEBUG] MAVLINK [SYSTEM_TIME] SYSTEM_TIME {time_unix_usec : 1763468213546022, time_boot_ms : 555658}
2025-11-18 17:46:53 [DEBUG] MAVLINK [WIND] WIND {direction : -180.0, speed : 0.0, speed_z : 0.0}
2025-11-18 17:46:53 [DEBUG] MAVLINK [TERRAIN_REPORT] TERRAIN_REPORT {lat : 174481099, lon : 783809756, spacing : 100, terrain_height : 579.780029296875, current_height : -0.05004225671291351, pending : 0, loaded : 504}
2025-11-18 17:46:53 [DEBUG] MAVLINK [EKF_STATUS_REPORT] EKF_STATUS_REPORT {flags : 831, velocity_variance : 0.020108355209231377, pos_horiz_variance : 0.0067211296409368515, pos_vert_variance : 0.0014403925742954016, compass_variance : 0.024513568729162216, terrain_alt_variance : 0.0, airspeed_variance : 0.0}
2025-11-18 17:46:53 [DEBUG] MAVLINK [LOCAL_POSITION_NED] LOCAL_POSITION_NED {time_boot_ms : 555660, x : -0.2304965853691101, y : -2.7112362384796143, z : 1.0636227130889893, vx : 0.02778748981654644, vy : -0.0020040874369442463, vz : -0.0018729562871158123}
2025-11-18 17:46:53 [DEBUG] MAVLINK [VIBRATION] VIBRATION {time_usec : 555660475, vibration_x : 0.019495103508234024, vibration_y : 0.013623637147247791, vibration_z : 0.008458401076495647, clipping_0 : 0, clipping_1 : 0, clipping_2 : 0}
2025-11-18 17:46:53 [DEBUG] MAVLINK [BATTERY_STATUS] BATTERY_STATUS {id : 0, battery_function : 0, type : 0, temperature : 32767, voltages : [10952, 65535, 65535, 65535, 65535, 65535, 65535, 65535, 65535, 65535], current_battery : 1, current_consumed : 218, energy_consumed : 78, battery_remaining : 95, time_remaining : 0, charge_state : 1, voltages_ext : [0, 0, 0, 0], mode : 0, fault_bitmask : 0}
2025-11-18 17:46:53 [DEBUG] MAVLINK [MCU_STATUS] MCU_STATUS {id : 0, MCU_temperature : 4523, MCU_voltage : 3286, MCU_voltage_min : 3276, MCU_voltage_max : 3296}
2025-11-18 17:46:53 [DEBUG] MAVLINK [HEARTBEAT] HEARTBEAT {type : 6, autopilot : 8, base_mode : 192, custom_mode : 0, system_status : 4, mavlink_version : 3}
2025-11-18 17:46:53 [DEBUG] MAVLINK [AHRS] AHRS {omegaIx : 0.00022722853464074433, omegaIy : 0.00011039785749744624, omegaIz : -0.002388377906754613, accel_weight : 0.0, renorm_val : 0.0, error_rp : 0.01458053383976221, error_yaw : 0.00830103363841772}
2025-11-18 17:46:53 [DEBUG] MAVLINK [AHRS2] AHRS2 {roll : -0.04605867713689804, pitch : -0.0007533708703704178, yaw : 1.8528456687927246, altitude : 578.6199951171875, lat : 174481096, lng : 783809762}
2025-11-18 17:46:53 [DEBUG] MAVLINK [ATTITUDE] ATTITUDE {time_boot_ms : 555905, roll : -0.031348805874586105, pitch : -0.003898337483406067, yaw : 1.8958877325057983, rollspeed : 0.0017877600621432066, pitchspeed : -0.001521711004897952, yawspeed : 0.002634276868775487}
2025-11-18 17:46:53 [DEBUG] MAVLINK [GLOBAL_POSITION_INT] GLOBAL_POSITION_INT {time_boot_ms : 555905, lat : 174481099, lon : 783809756, alt : 579720, relative_alt : -50, vx : 2, vy : 0, vz : 0, hdg : 10862}
2025-11-18 17:46:53 [DEBUG] MAVLINK [VFR_HUD] VFR_HUD {airspeed : 0.02656225860118866, groundspeed : 0.026560531929135323, heading : 108, throttle : 0, alt : 579.719970703125, climb : -0.0003028084465768188}
2025-11-18 17:46:53 [DEBUG] MAVLINK [SYS_STATUS] SYS_STATUS {onboard_control_sensors_present : 1399913519, onboard_control_sensors_enabled : 1130429487, onboard_control_sensors_health : 1198586927, load : 316, voltage_battery : 10960, current_battery : 2, battery_remaining : 95, drop_rate_comm : 0, errors_comm : 0, errors_count1 : 0, errors_count2 : 0, errors_count3 : 0, errors_count4 : 0}
2025-11-18 17:46:53 [DEBUG] MAVLINK [POWER_STATUS] POWER_STATUS {Vcc : 5285, Vservo : 5023, flags : 5}
2025-11-18 17:46:53 [DEBUG] MAVLINK [MEMINFO] MEMINFO {brkval : 0, freemem : 65535, freemem32 : 563624}
2025-11-18 17:46:53 [DEBUG] MAVLINK [NAV_CONTROLLER_OUTPUT] NAV_CONTROLLER_OUTPUT {nav_roll : -0.00024786245194263756, nav_pitch : -0.00030535360565409064, nav_bearing : 108, target_bearing : 0, wp_dist : 0, alt_error : 0.0, aspd_error : 0.0, xtrack_error : 0.0}
2025-11-18 17:46:53 [DEBUG] MAVLINK [MISSION_CURRENT] MISSION_CURRENT {seq : 0, total : 0, mission_state : 1, mission_mode : 0}
2025-11-18 17:46:53 [DEBUG] MAVLINK [SERVO_OUTPUT_RAW] SERVO_OUTPUT_RAW {time_usec : 555905912, port : 0, servo1_raw : 1000, servo2_raw : 1000, servo3_raw : 1000, servo4_raw : 1000, servo5_raw : 0, servo6_raw : 0, servo7_raw : 0, servo8_raw : 0, servo9_raw : 0, servo10_raw : 0, servo11_raw : 0, servo12_raw : 0, servo13_raw : 0, servo14_raw : 0, servo15_raw : 0, servo16_raw : 0}
2025-11-18 17:46:53 [DEBUG] MAVLINK [RC_CHANNELS] RC_CHANNELS {time_boot_ms : 555905, chancount : 0, chan1_raw : 0, chan2_raw : 0, chan3_raw : 0, chan4_raw : 0, chan5_raw : 0, chan6_raw : 0, chan7_raw : 0, chan8_raw : 0, chan9_raw : 0, chan10_raw : 0, chan11_raw : 0, chan12_raw : 0, chan13_raw : 0, chan14_raw : 0, chan15_raw : 0, chan16_raw : 0, chan17_raw : 0, chan18_raw : 0, rssi : 255}
2025-11-18 17:46:53 [DEBUG] MAVLINK [RAW_IMU] RAW_IMU {time_usec : 555906014, xacc : 11, yacc : 70, zacc : -999, xgyro : 1, ygyro : -1, zgyro : 5, xmag : -90, ymag : -299, zmag : 99, id : 0, temperature : 4480}
2025-11-18 17:46:53 [DEBUG] MAVLINK [SCALED_IMU2] SCALED_IMU2 {time_boot_ms : 555907, xacc : 13, yacc : 66, zacc : -996, xgyro : 3, ygyro : -2, zgyro : 3, xmag : -155, ymag : -358, zmag : 150, temperature : 4855}
2025-11-18 17:46:53 [DEBUG] MAVLINK [SCALED_IMU3] SCALED_IMU3 {time_boot_ms : 555908, xacc : 21, yacc : 58, zacc : -1001, xgyro : 1, ygyro : 0, zgyro : 4, xmag : 0, ymag : 0, zmag : 0, temperature : 4739}
2025-11-18 17:46:53 [DEBUG] MAVLINK [SCALED_PRESSURE] SCALED_PRESSURE {time_boot_ms : 555908, press_abs : 949.119140625, press_diff : 0.0, temperature : 4659, temperature_press_diff : 0}
2025-11-18 17:46:53 [DEBUG] MAVLINK [SCALED_PRESSURE2] SCALED_PRESSURE2 {time_boot_ms : 555908, press_abs : 949.1953735351562, press_diff : 0.0, temperature : 4352, temperature_press_diff : 0}
2025-11-18 17:46:53 [DEBUG] MAVLINK [GPS_RAW_INT] GPS_RAW_INT {time_usec : 555712000, fix_type : 4, lat : 174481096, lon : 783809762, alt : 573060, eph : 78, epv : 139, vel : 2, cog : 9919, satellites_visible : 17, alt_ellipsoid : 498965, h_acc : 1368, v_acc : 2410, vel_acc : 349, hdg_acc : 0, yaw : 0}
2025-11-18 17:46:53 [DEBUG] MAVLINK [SYSTEM_TIME] SYSTEM_TIME {time_unix_usec : 1763468213795947, time_boot_ms : 555908}
2025-11-18 17:46:53 [DEBUG] MAVLINK [WIND] WIND {direction : -180.0, speed : 0.0, speed_z : 0.0}
2025-11-18 17:46:53 [DEBUG] MAVLINK [TERRAIN_REPORT] TERRAIN_REPORT {lat : 174481099, lon : 783809756, spacing : 100, terrain_height : 579.780029296875, current_height : -0.060042254626750946, pending : 0, loaded : 504}
2025-11-18 17:46:53 [DEBUG] MAVLINK [EKF_STATUS_REPORT] EKF_STATUS_REPORT {flags : 831, velocity_variance : 0.01889859512448311, pos_horiz_variance : 0.00748938275501132, pos_vert_variance : 0.007460103835910559, compass_variance : 0.02225852571427822, terrain_alt_variance : 0.0, airspeed_variance : 0.0}
2025-11-18 17:46:53 [DEBUG] MAVLINK [LOCAL_POSITION_NED] LOCAL_POSITION_NED {time_boot_ms : 555908, x : -0.22880271077156067, y : -2.7081806659698486, z : 1.0704371929168701, vx : 0.026378393173217773, vy : -0.0027397344820201397, vz : 0.0002703774953261018}
2025-11-18 17:46:53 [DEBUG] MAVLINK [VIBRATION] VIBRATION {time_usec : 555910349, vibration_x : 0.015247615985572338, vibration_y : 0.011138411238789558, vibration_z : 0.008957784622907639, clipping_0 : 0, clipping_1 : 0, clipping_2 : 0}
2025-11-18 17:46:53 [DEBUG] MAVLINK [BATTERY_STATUS] BATTERY_STATUS {id : 0, battery_function : 0, type : 0, temperature : 32767, voltages : [10960, 65535, 65535, 65535, 65535, 65535, 65535, 65535, 65535, 65535], current_battery : 2, current_consumed : 218, energy_consumed : 78, battery_remaining : 95, time_remaining : 0, charge_state : 1, voltages_ext : [0, 0, 0, 0], mode : 0, fault_bitmask : 0}
2025-11-18 17:46:53 [DEBUG] MAVLINK [MCU_STATUS] MCU_STATUS {id : 0, MCU_temperature : 4517, MCU_voltage : 3286, MCU_voltage_min : 3280, MCU_voltage_max : 3293}
2025-11-18 17:46:54 [DEBUG] MAVLINK [HEARTBEAT] HEARTBEAT {type : 2, autopilot : 3, base_mode : 217, custom_mode : 4, system_status : 5, mavlink_version : 3}
2025-11-18 17:46:54 [DEBUG] MAVLINK [AHRS] AHRS {omegaIx : 0.00022689765319228172, omegaIy : 0.00010814269626280293, omegaIz : -0.0023987956810742617, accel_weight : 0.0, renorm_val : 0.0, error_rp : 0.01476491242647171, error_yaw : 0.00871108565479517}
2025-11-18 17:46:54 [DEBUG] MAVLINK [AHRS2] AHRS2 {roll : -0.046151068061590195, pitch : -0.000250071519985795, yaw : 1.8525410890579224, altitude : 578.510009765625, lat : 174481096, lng : 783809764}
2025-11-18 17:46:54 [DEBUG] MAVLINK [ATTITUDE] ATTITUDE {time_boot_ms : 556155, roll : -0.031358134001493454, pitch : -0.003940179944038391, yaw : 1.8953168392181396, rollspeed : -0.0014860479859635234, pitchspeed : 0.0009732434409670532, yawspeed : 0.0024280885700136423}
2025-11-18 17:46:54 [DEBUG] MAVLINK [GLOBAL_POSITION_INT] GLOBAL_POSITION_INT {time_boot_ms : 556155, lat : 174481099, lon : 783809757, alt : 579720, relative_alt : -57, vx : 2, vy : 0, vz : 0, hdg : 10859}
2025-11-18 17:46:54 [DEBUG] MAVLINK [VFR_HUD] VFR_HUD {airspeed : 0.02451341599225998, groundspeed : 0.024427363649010658, heading : 108, throttle : 0, alt : 579.719970703125, climb : -0.0020521630067378283}
2025-11-18 17:46:54 [DEBUG] MAVLINK [SYS_STATUS] SYS_STATUS {onboard_control_sensors_present : 1399913519, onboard_control_sensors_enabled : 1130429487, onboard_control_sensors_health : 1198586927, load : 325, voltage_battery : 10951, current_battery : 1, battery_remaining : 95, drop_rate_comm : 0, errors_comm : 0, errors_count1 : 0, errors_count2 : 0, errors_count3 : 0, errors_count4 : 0}
2025-11-18 17:46:54 [DEBUG] MAVLINK [POWER_STATUS] POWER_STATUS {Vcc : 5273, Vservo : 5035, flags : 5}
2025-11-18 17:46:54 [DEBUG] MAVLINK [MEMINFO] MEMINFO {brkval : 0, freemem : 65535, freemem32 : 563624}
2025-11-18 17:46:54 [DEBUG] MAVLINK [NAV_CONTROLLER_OUTPUT] NAV_CONTROLLER_OUTPUT {nav_roll : -0.0002478623064234853, nav_pitch : -0.0003053535765502602, nav_bearing : 108, target_bearing : 0, wp_dist : 0, alt_error : 0.0, aspd_error : 0.0, xtrack_error : 0.0}
2025-11-18 17:46:54 [DEBUG] MAVLINK [MISSION_CURRENT] MISSION_CURRENT {seq : 0, total : 0, mission_state : 1, mission_mode : 0}
2025-11-18 17:46:54 [DEBUG] MAVLINK [SERVO_OUTPUT_RAW] SERVO_OUTPUT_RAW {time_usec : 556155876, port : 0, servo1_raw : 1000, servo2_raw : 1000, servo3_raw : 1000, servo4_raw : 1000, servo5_raw : 0, servo6_raw : 0, servo7_raw : 0, servo8_raw : 0, servo9_raw : 0, servo10_raw : 0, servo11_raw : 0, servo12_raw : 0, servo13_raw : 0, servo14_raw : 0, servo15_raw : 0, servo16_raw : 0}
2025-11-18 17:46:54 [DEBUG] MAVLINK [RC_CHANNELS] RC_CHANNELS {time_boot_ms : 556155, chancount : 0, chan1_raw : 0, chan2_raw : 0, chan3_raw : 0, chan4_raw : 0, chan5_raw : 0, chan6_raw : 0, chan7_raw : 0, chan8_raw : 0, chan9_raw : 0, chan10_raw : 0, chan11_raw : 0, chan12_raw : 0, chan13_raw : 0, chan14_raw : 0, chan15_raw : 0, chan16_raw : 0, chan17_raw : 0, chan18_raw : 0, rssi : 255}
2025-11-18 17:46:54 [DEBUG] MAVLINK [RAW_IMU] RAW_IMU {time_usec : 556155944, xacc : 13, yacc : 70, zacc : -999, xgyro : -1, ygyro : 0, zgyro : 4, xmag : -91, ymag : -298, zmag : 100, id : 0, temperature : 4480}
2025-11-18 17:46:54 [DEBUG] MAVLINK [SCALED_IMU2] SCALED_IMU2 {time_boot_ms : 556155, xacc : 15, yacc : 67, zacc : -997, xgyro : 1, ygyro : 0, zgyro : 1, xmag : -164, ymag : -367, zmag : 153, temperature : 4855}
2025-11-18 17:46:54 [DEBUG] MAVLINK [SCALED_IMU3] SCALED_IMU3 {time_boot_ms : 556155, xacc : 23, yacc : 58, zacc : -1001, xgyro : -1, ygyro : 1, zgyro : 2, xmag : 0, ymag : 0, zmag : 0, temperature : 4740}
2025-11-18 17:46:54 [DEBUG] MAVLINK [SCALED_PRESSURE] SCALED_PRESSURE {time_boot_ms : 556155, press_abs : 949.132080078125, press_diff : 0.0, temperature : 4659, temperature_press_diff : 0}
2025-11-18 17:46:54 [DEBUG] MAVLINK [SCALED_PRESSURE2] SCALED_PRESSURE2 {time_boot_ms : 556155, press_abs : 949.1769409179688, press_diff : 0.0, temperature : 4352, temperature_press_diff : 0}
2025-11-18 17:46:54 [DEBUG] MAVLINK [GPS_RAW_INT] GPS_RAW_INT {time_usec : 555912000, fix_type : 4, lat : 174481096, lon : 783809764, alt : 573040, eph : 78, epv : 139, vel : 3, cog : 9919, satellites_visible : 17, alt_ellipsoid : 498945, h_acc : 1368, v_acc : 2408, vel_acc : 375, hdg_acc : 0, yaw : 0}
2025-11-18 17:46:54 [DEBUG] MAVLINK [SYSTEM_TIME] SYSTEM_TIME {time_unix_usec : 1763468214045895, time_boot_ms : 556158}
2025-11-18 17:46:54 [DEBUG] MAVLINK [WIND] WIND {direction : -180.0, speed : 0.0, speed_z : 0.0}
2025-11-18 17:46:54 [DEBUG] MAVLINK [TERRAIN_REPORT] TERRAIN_REPORT {lat : 174481099, lon : 783809757, spacing : 100, terrain_height : 579.7802124023438, current_height : -0.060225360095500946, pending : 0, loaded : 504}
2025-11-18 17:46:54 [DEBUG] MAVLINK [EKF_STATUS_REPORT] EKF_STATUS_REPORT {flags : 831, velocity_variance : 0.017965244129300117, pos_horiz_variance : 0.008440141566097736, pos_vert_variance : 0.009620117954909801, compass_variance : 0.022352926433086395, terrain_alt_variance : 0.0, airspeed_variance : 0.0}
2025-11-18 17:46:54 [DEBUG] MAVLINK [LOCAL_POSITION_NED] LOCAL_POSITION_NED {time_boot_ms : 556158, x : -0.2274310141801834, y : -2.700352191925049, z : 1.0771656036376953, vx : 0.024477923288941383, vy : 8.09699558885768e-05, vz : 0.002052255207672715}
2025-11-18 17:46:54 [DEBUG] MAVLINK [VIBRATION] VIBRATION {time_usec : 556158213, vibration_x : 0.010800988413393497, vibration_y : 0.011498280800879002, vibration_z : 0.009290951304137707, clipping_0 : 0, clipping_1 : 0, clipping_2 : 0}
2025-11-18 17:46:54 [DEBUG] MAVLINK [BATTERY_STATUS] BATTERY_STATUS {id : 0, battery_function : 0, type : 0, temperature : 32767, voltages : [10951, 65535, 65535, 65535, 65535, 65535, 65535, 65535, 65535, 65535], current_battery : 1, current_consumed : 218, energy_consumed : 78, battery_remaining : 95, time_remaining : 0, charge_state : 1, voltages_ext : [0, 0, 0, 0], mode : 0, fault_bitmask : 0}
2025-11-18 17:46:54 [DEBUG] MAVLINK [MCU_STATUS] MCU_STATUS {id : 0, MCU_temperature : 4525, MCU_voltage : 3286, MCU_voltage_min : 3280, MCU_voltage_max : 3294}
2025-11-18 17:46:54 [DEBUG] MAVLINK [HEARTBEAT] HEARTBEAT {type : 27, autopilot : 8, base_mode : 4, custom_mode : 0, system_status : 4, mavlink_version : 3}
2025-11-18 17:46:54 [DEBUG] MAVLINK [AHRS] AHRS {omegaIx : 0.0002329834969714284, omegaIy : 0.00010516314068809152, omegaIz : -0.002402446698397398, accel_weight : 0.0, renorm_val : 0.0, error_rp : 0.013999328017234802, error_yaw : 0.009123452939093113}
2025-11-18 17:46:54 [DEBUG] MAVLINK [AHRS2] AHRS2 {roll : -0.045522816479206085, pitch : -6.729527376592159e-05, yaw : 1.8522499799728394, altitude : 578.7000122070312, lat : 174481095, lng : 783809766}
2025-11-18 17:46:54 [DEBUG] MAVLINK [ATTITUDE] ATTITUDE {time_boot_ms : 556405, roll : -0.031195692718029022, pitch : -0.003971834667026997, yaw : 1.894724726676941, rollspeed : 0.0007935849716886878, pitchspeed : -0.00027166883228346705, yawspeed : 0.0008813650347292423}
2025-11-18 17:46:54 [DEBUG] MAVLINK [GLOBAL_POSITION_INT] GLOBAL_POSITION_INT {time_boot_ms : 556405, lat : 174481099, lon : 783809757, alt : 579710, relative_alt : -65, vx : 2, vy : 0, vz : 0, hdg : 10855}
2025-11-18 17:46:54 [DEBUG] MAVLINK [VFR_HUD] VFR_HUD {airspeed : 0.021967370063066483, groundspeed : 0.021476170048117638, heading : 108, throttle : 0, alt : 579.7099609375, climb : -0.004619477316737175}
2025-11-18 17:46:54 [DEBUG] MAVLINK [SYS_STATUS] SYS_STATUS {onboard_control_sensors_present : 1399913519, onboard_control_sensors_enabled : 1130429487, onboard_control_sensors_health : 1198586927, load : 328, voltage_battery : 10958, current_battery : 2, battery_remaining : 95, drop_rate_comm : 0, errors_comm : 0, errors_count1 : 0, errors_count2 : 0, errors_count3 : 0, errors_count4 : 0}
2025-11-18 17:46:54 [DEBUG] MAVLINK [POWER_STATUS] POWER_STATUS {Vcc : 5274, Vservo : 5035, flags : 5}
2025-11-18 17:46:54 [DEBUG] MAVLINK [MEMINFO] MEMINFO {brkval : 0, freemem : 65535, freemem32 : 563624}
2025-11-18 17:46:54 [DEBUG] MAVLINK [NAV_CONTROLLER_OUTPUT] NAV_CONTROLLER_OUTPUT {nav_roll : -0.0002478623064234853, nav_pitch : -0.00030535360565409064, nav_bearing : 108, target_bearing : 0, wp_dist : 0, alt_error : 0.0, aspd_error : 0.0, xtrack_error : 0.0}
2025-11-18 17:46:54 [DEBUG] MAVLINK [MISSION_CURRENT] MISSION_CURRENT {seq : 0, total : 0, mission_state : 1, mission_mode : 0}
2025-11-18 17:46:54 [DEBUG] MAVLINK [SERVO_OUTPUT_RAW] SERVO_OUTPUT_RAW {time_usec : 556405904, port : 0, servo1_raw : 1000, servo2_raw : 1000, servo3_raw : 1000, servo4_raw : 1000, servo5_raw : 0, servo6_raw : 0, servo7_raw : 0, servo8_raw : 0, servo9_raw : 0, servo10_raw : 0, servo11_raw : 0, servo12_raw : 0, servo13_raw : 0, servo14_raw : 0, servo15_raw : 0, servo16_raw : 0}
2025-11-18 17:46:54 [DEBUG] MAVLINK [RC_CHANNELS] RC_CHANNELS {time_boot_ms : 556405, chancount : 0, chan1_raw : 0, chan2_raw : 0, chan3_raw : 0, chan4_raw : 0, chan5_raw : 0, chan6_raw : 0, chan7_raw : 0, chan8_raw : 0, chan9_raw : 0, chan10_raw : 0, chan11_raw : 0, chan12_raw : 0, chan13_raw : 0, chan14_raw : 0, chan15_raw : 0, chan16_raw : 0, chan17_raw : 0, chan18_raw : 0, rssi : 255}
2025-11-18 17:46:54 [DEBUG] MAVLINK [RAW_IMU] RAW_IMU {time_usec : 556405943, xacc : 13, yacc : 72, zacc : -998, xgyro : 0, ygyro : 0, zgyro : 3, xmag : -91, ymag : -298, zmag : 99, id : 0, temperature : 4480}
2025-11-18 17:46:54 [DEBUG] MAVLINK [SCALED_IMU2] SCALED_IMU2 {time_boot_ms : 556405, xacc : 15, yacc : 69, zacc : -997, xgyro : 1, ygyro : 2, zgyro : -1, xmag : -161, ymag : -351, zmag : 154, temperature : 4855}
2025-11-18 17:46:54 [DEBUG] MAVLINK [SCALED_IMU3] SCALED_IMU3 {time_boot_ms : 556405, xacc : 21, yacc : 60, zacc : -997, xgyro : 0, ygyro : -1, zgyro : 0, xmag : 0, ymag : 0, zmag : 0, temperature : 4740}
2025-11-18 17:46:54 [DEBUG] MAVLINK [SCALED_PRESSURE] SCALED_PRESSURE {time_boot_ms : 556406, press_abs : 949.1096801757812, press_diff : 0.0, temperature : 4659, temperature_press_diff : 0}
2025-11-18 17:46:54 [DEBUG] MAVLINK [SCALED_PRESSURE2] SCALED_PRESSURE2 {time_boot_ms : 556408, press_abs : 949.1983642578125, press_diff : 0.0, temperature : 4352, temperature_press_diff : 0}
2025-11-18 17:46:54 [DEBUG] MAVLINK [GPS_RAW_INT] GPS_RAW_INT {time_usec : 556312000, fix_type : 4, lat : 174481095, lon : 783809766, alt : 573020, eph : 78, epv : 139, vel : 1, cog : 9919, satellites_visible : 17, alt_ellipsoid : 498926, h_acc : 1368, v_acc : 2406, vel_acc : 395, hdg_acc : 0, yaw : 0}
2025-11-18 17:46:54 [DEBUG] MAVLINK [SYSTEM_TIME] SYSTEM_TIME {time_unix_usec : 1763468214295967, time_boot_ms : 556408}
2025-11-18 17:46:54 [DEBUG] MAVLINK [WIND] WIND {direction : -180.0, speed : 0.0, speed_z : 0.0}
2025-11-18 17:46:54 [DEBUG] MAVLINK [TERRAIN_REPORT] TERRAIN_REPORT {lat : 174481099, lon : 783809757, spacing : 100, terrain_height : 579.7802124023438, current_height : -0.07022535800933838, pending : 0, loaded : 504}
2025-11-18 17:46:54 [DEBUG] MAVLINK [EKF_STATUS_REPORT] EKF_STATUS_REPORT {flags : 831, velocity_variance : 0.017216408625245094, pos_horiz_variance : 0.009892354719340801, pos_vert_variance : 0.0026326365768909454, compass_variance : 0.021488554775714874, terrain_alt_variance : 0.0, airspeed_variance : 0.0}
2025-11-18 17:46:54 [DEBUG] MAVLINK [LOCAL_POSITION_NED] LOCAL_POSITION_NED {time_boot_ms : 556408, x : -0.2292514592409134, y : -2.6923770904541016, z : 1.0858105421066284, vx : 0.021419886499643326, vy : 0.0013463529758155346, vz : 0.00462384382262826}
2025-11-18 17:46:54 [DEBUG] MAVLINK [VIBRATION] VIBRATION {time_usec : 556408279, vibration_x : 0.008622372522950172, vibration_y : 0.012437352910637856, vibration_z : 0.008193171583116055, clipping_0 : 0, clipping_1 : 0, clipping_2 : 0}
2025-11-18 17:46:54 [DEBUG] MAVLINK [BATTERY_STATUS] BATTERY_STATUS {id : 0, battery_function : 0, type : 0, temperature : 32767, voltages : [10958, 65535, 65535, 65535, 65535, 65535, 65535, 65535, 65535, 65535], current_battery : 2, current_consumed : 218, energy_consumed : 78, battery_remaining : 95, time_remaining : 0, charge_state : 1, voltages_ext : [0, 0, 0, 0], mode : 0, fault_bitmask : 0}
2025-11-18 17:46:54 [DEBUG] MAVLINK [MCU_STATUS] MCU_STATUS {id : 0, MCU_temperature : 4523, MCU_voltage : 3286, MCU_voltage_min : 3276, MCU_voltage_max : 3295}
2025-11-18 17:46:54 [DEBUG] MAVLINK [AHRS] AHRS {omegaIx : 0.0002371990995015949, omegaIy : 0.00010762160673039034, omegaIz : -0.00240822765044868, accel_weight : 0.0, renorm_val : 0.0, error_rp : 0.01517125777900219, error_yaw : 0.009140046313405037}
2025-11-18 17:46:54 [DEBUG] MAVLINK [AHRS2] AHRS2 {roll : -0.04531395062804222, pitch : 0.0001343025651294738, yaw : 1.8518824577331543, altitude : 578.7799682617188, lat : 174481094, lng : 783809766}
2025-11-18 17:46:54 [DEBUG] MAVLINK [ATTITUDE] ATTITUDE {time_boot_ms : 556655, roll : -0.03111588954925537, pitch : -0.004005619324743748, yaw : 1.8940678834915161, rollspeed : -0.00017731109983287752, pitchspeed : -0.0006289106677286327, yawspeed : -0.0014630836667492986}
2025-11-18 17:46:54 [DEBUG] MAVLINK [GLOBAL_POSITION_INT] GLOBAL_POSITION_INT {time_boot_ms : 556655, lat : 174481099, lon : 783809758, alt : 579700, relative_alt : -71, vx : 1, vy : 0, vz : 0, hdg : 10852}
2025-11-18 17:46:54 [DEBUG] MAVLINK [VFR_HUD] VFR_HUD {airspeed : 0.018758699297904968, groundspeed : 0.017598269507288933, heading : 108, throttle : 0, alt : 579.7000122070312, climb : -0.006495360750705004}
2025-11-18 17:46:54 [DEBUG] MAVLINK [SYS_STATUS] SYS_STATUS {onboard_control_sensors_present : 1399913519, onboard_control_sensors_enabled : 1130429487, onboard_control_sensors_health : 1198586927, load : 323, voltage_battery : 10964, current_battery : 2, battery_remaining : 95, drop_rate_comm : 0, errors_comm : 0, errors_count1 : 0, errors_count2 : 0, errors_count3 : 0, errors_count4 : 0}
2025-11-18 17:46:54 [DEBUG] MAVLINK [POWER_STATUS] POWER_STATUS {Vcc : 5281, Vservo : 5026, flags : 5}
2025-11-18 17:46:54 [DEBUG] MAVLINK [MEMINFO] MEMINFO {brkval : 0, freemem : 65535, freemem32 : 563624}
2025-11-18 17:46:54 [DEBUG] MAVLINK [NAV_CONTROLLER_OUTPUT] NAV_CONTROLLER_OUTPUT {nav_roll : -0.00024786219000816345, nav_pitch : -0.00030535372206941247, nav_bearing : 108, target_bearing : 0, wp_dist : 0, alt_error : 0.0, aspd_error : 0.0, xtrack_error : 0.0}
2025-11-18 17:46:54 [DEBUG] MAVLINK [MISSION_CURRENT] MISSION_CURRENT {seq : 0, total : 0, mission_state : 1, mission_mode : 0}
2025-11-18 17:46:54 [DEBUG] MAVLINK [SERVO_OUTPUT_RAW] SERVO_OUTPUT_RAW {time_usec : 556655902, port : 0, servo1_raw : 1000, servo2_raw : 1000, servo3_raw : 1000, servo4_raw : 1000, servo5_raw : 0, servo6_raw : 0, servo7_raw : 0, servo8_raw : 0, servo9_raw : 0, servo10_raw : 0, servo11_raw : 0, servo12_raw : 0, servo13_raw : 0, servo14_raw : 0, servo15_raw : 0, servo16_raw : 0}
2025-11-18 17:46:54 [DEBUG] MAVLINK [RC_CHANNELS] RC_CHANNELS {time_boot_ms : 556658, chancount : 0, chan1_raw : 0, chan2_raw : 0, chan3_raw : 0, chan4_raw : 0, chan5_raw : 0, chan6_raw : 0, chan7_raw : 0, chan8_raw : 0, chan9_raw : 0, chan10_raw : 0, chan11_raw : 0, chan12_raw : 0, chan13_raw : 0, chan14_raw : 0, chan15_raw : 0, chan16_raw : 0, chan17_raw : 0, chan18_raw : 0, rssi : 255}
2025-11-18 17:46:54 [DEBUG] MAVLINK [RAW_IMU] RAW_IMU {time_usec : 556658163, xacc : 12, yacc : 69, zacc : -999, xgyro : 0, ygyro : 0, zgyro : 0, xmag : -92, ymag : -298, zmag : 100, id : 0, temperature : 4480}
2025-11-18 17:46:54 [DEBUG] MAVLINK [SCALED_IMU2] SCALED_IMU2 {time_boot_ms : 556658, xacc : 14, yacc : 68, zacc : -998, xgyro : 0, ygyro : -1, zgyro : -3, xmag : -159, ymag : -358, zmag : 152, temperature : 4855}
2025-11-18 17:46:54 [DEBUG] MAVLINK [SCALED_IMU3] SCALED_IMU3 {time_boot_ms : 556658, xacc : 20, yacc : 59, zacc : -998, xgyro : 0, ygyro : 0, zgyro : 0, xmag : 0, ymag : 0, zmag : 0, temperature : 4739}
2025-11-18 17:46:54 [DEBUG] MAVLINK [SCALED_PRESSURE] SCALED_PRESSURE {time_boot_ms : 556658, press_abs : 949.1019287109375, press_diff : 0.0, temperature : 4659, temperature_press_diff : 0}
2025-11-18 17:46:54 [DEBUG] MAVLINK [SCALED_PRESSURE2] SCALED_PRESSURE2 {time_boot_ms : 556658, press_abs : 949.2003173828125, press_diff : 0.0, temperature : 4352, temperature_press_diff : 0}
2025-11-18 17:46:54 [DEBUG] MAVLINK [GPS_RAW_INT] GPS_RAW_INT {time_usec : 556512000, fix_type : 4, lat : 174481094, lon : 783809766, alt : 573000, eph : 78, epv : 139, vel : 3, cog : 9919, satellites_visible : 17, alt_ellipsoid : 498906, h_acc : 1367, v_acc : 2404, vel_acc : 398, hdg_acc : 0, yaw : 0}
2025-11-18 17:46:54 [INFO] Waiting for motors to arm...
2025-11-18 17:46:54 [DEBUG] MAVLINK [SYSTEM_TIME] SYSTEM_TIME {time_unix_usec : 1763468214546094, time_boot_ms : 556658}
2025-11-18 17:46:54 [DEBUG] MAVLINK [WIND] WIND {direction : -180.0, speed : 0.0, speed_z : 0.0}
2025-11-18 17:46:54 [DEBUG] MAVLINK [TERRAIN_REPORT] TERRAIN_REPORT {lat : 174481099, lon : 783809758, spacing : 100, terrain_height : 579.7803955078125, current_height : -0.08040846884250641, pending : 0, loaded : 504}
2025-11-18 17:46:54 [DEBUG] MAVLINK [EKF_STATUS_REPORT] EKF_STATUS_REPORT {flags : 831, velocity_variance : 0.018736541271209717, pos_horiz_variance : 0.009753084741532803, pos_vert_variance : 0.004300221800804138, compass_variance : 0.02044222317636013, terrain_alt_variance : 0.0, airspeed_variance : 0.0}
2025-11-18 17:46:54 [DEBUG] MAVLINK [LOCAL_POSITION_NED] LOCAL_POSITION_NED {time_boot_ms : 556658, x : -0.23328034579753876, y : -2.6859865188598633, z : 1.0919115543365479, vx : 0.017567936331033707, vy : 0.0011512754717841744, vz : 0.006484012585133314}
2025-11-18 17:46:54 [DEBUG] MAVLINK [VIBRATION] VIBRATION {time_usec : 556658400, vibration_x : 0.009470821358263493, vibration_y : 0.00972872693091631, vibration_z : 0.008143480867147446, clipping_0 : 0, clipping_1 : 0, clipping_2 : 0}
2025-11-18 17:46:54 [DEBUG] MAVLINK [BATTERY_STATUS] BATTERY_STATUS {id : 0, battery_function : 0, type : 0, temperature : 32767, voltages : [10964, 65535, 65535, 65535, 65535, 65535, 65535, 65535, 65535, 65535], current_battery : 2, current_consumed : 218, energy_consumed : 78, battery_remaining : 95, time_remaining : 0, charge_state : 1, voltages_ext : [0, 0, 0, 0], mode : 0, fault_bitmask : 0}
2025-11-18 17:46:54 [DEBUG] MAVLINK [MCU_STATUS] MCU_STATUS {id : 0, MCU_temperature : 4521, MCU_voltage : 3286, MCU_voltage_min : 3279, MCU_voltage_max : 3293}
2025-11-18 17:46:54 [DEBUG] MAVLINK [HEARTBEAT] HEARTBEAT {type : 6, autopilot : 8, base_mode : 192, custom_mode : 0, system_status : 4, mavlink_version : 3}
2025-11-18 17:46:54 [DEBUG] MAVLINK [AHRS] AHRS {omegaIx : 0.00023969504400156438, omegaIy : 0.00010563355317572132, omegaIz : -0.0024136188440024853, accel_weight : 0.0, renorm_val : 0.0, error_rp : 0.0149902468547225, error_yaw : 0.00968752522021532}
2025-11-18 17:46:54 [DEBUG] MAVLINK [AHRS2] AHRS2 {roll : -0.04510591924190521, pitch : -3.492868199828081e-05, yaw : 1.8515316247940063, altitude : 578.6900024414062, lat : 174481093, lng : 783809767}
2025-11-18 17:46:54 [DEBUG] MAVLINK [ATTITUDE] ATTITUDE {time_boot_ms : 556905, roll : -0.031021207571029663, pitch : -0.003986982628703117, yaw : 1.8934111595153809, rollspeed : -0.0008667169604450464, pitchspeed : 0.0016539121279492974, yawspeed : -0.003949623554944992}
2025-11-18 17:46:54 [DEBUG] MAVLINK [GLOBAL_POSITION_INT] GLOBAL_POSITION_INT {time_boot_ms : 556905, lat : 174481099, lon : 783809758, alt : 579700, relative_alt : -74, vx : 1, vy : 0, vz : 0, hdg : 10848}
2025-11-18 17:46:54 [DEBUG] MAVLINK [VFR_HUD] VFR_HUD {airspeed : 0.01448956411331892, groundspeed : 0.012530702166259289, heading : 108, throttle : 0, alt : 579.7000122070312, climb : -0.0072752307169139385}
2025-11-18 17:46:54 [DEBUG] MAVLINK [SYS_STATUS] SYS_STATUS {onboard_control_sensors_present : 1399913519, onboard_control_sensors_enabled : 1130429487, onboard_control_sensors_health : 1198586927, load : 316, voltage_battery : 10962, current_battery : 2, battery_remaining : 95, drop_rate_comm : 0, errors_comm : 0, errors_count1 : 0, errors_count2 : 0, errors_count3 : 0, errors_count4 : 0}
2025-11-18 17:46:54 [DEBUG] MAVLINK [POWER_STATUS] POWER_STATUS {Vcc : 5287, Vservo : 5026, flags : 5}
2025-11-18 17:46:54 [DEBUG] MAVLINK [MEMINFO] MEMINFO {brkval : 0, freemem : 65535, freemem32 : 563624}
2025-11-18 17:46:54 [DEBUG] MAVLINK [NAV_CONTROLLER_OUTPUT] NAV_CONTROLLER_OUTPUT {nav_roll : -0.00024786224821582437, nav_pitch : -0.00030535372206941247, nav_bearing : 108, target_bearing : 0, wp_dist : 0, alt_error : 0.0, aspd_error : 0.0, xtrack_error : 0.0}
2025-11-18 17:46:54 [DEBUG] MAVLINK [MISSION_CURRENT] MISSION_CURRENT {seq : 0, total : 0, mission_state : 1, mission_mode : 0}
2025-11-18 17:46:54 [DEBUG] MAVLINK [SERVO_OUTPUT_RAW] SERVO_OUTPUT_RAW {time_usec : 556905871, port : 0, servo1_raw : 1070, servo2_raw : 1070, servo3_raw : 1070, servo4_raw : 1070, servo5_raw : 0, servo6_raw : 0, servo7_raw : 0, servo8_raw : 0, servo9_raw : 0, servo10_raw : 0, servo11_raw : 0, servo12_raw : 0, servo13_raw : 0, servo14_raw : 0, servo15_raw : 0, servo16_raw : 0}
2025-11-18 17:46:54 [DEBUG] MAVLINK [RC_CHANNELS] RC_CHANNELS {time_boot_ms : 556905, chancount : 0, chan1_raw : 0, chan2_raw : 0, chan3_raw : 0, chan4_raw : 0, chan5_raw : 0, chan6_raw : 0, chan7_raw : 0, chan8_raw : 0, chan9_raw : 0, chan10_raw : 0, chan11_raw : 0, chan12_raw : 0, chan13_raw : 0, chan14_raw : 0, chan15_raw : 0, chan16_raw : 0, chan17_raw : 0, chan18_raw : 0, rssi : 255}
2025-11-18 17:46:54 [DEBUG] MAVLINK [RAW_IMU] RAW_IMU {time_usec : 556908076, xacc : 11, yacc : 69, zacc : -998, xgyro : 0, ygyro : 1, zgyro : -1, xmag : -91, ymag : -298, zmag : 100, id : 0, temperature : 4432}
2025-11-18 17:46:54 [DEBUG] MAVLINK [SCALED_IMU2] SCALED_IMU2 {time_boot_ms : 556908, xacc : 14, yacc : 64, zacc : -997, xgyro : 1, ygyro : 1, zgyro : -3, xmag : -159, ymag : -367, zmag : 145, temperature : 4855}
2025-11-18 17:46:54 [DEBUG] MAVLINK [SCALED_IMU3] SCALED_IMU3 {time_boot_ms : 556908, xacc : 18, yacc : 58, zacc : -1001, xgyro : 0, ygyro : 0, zgyro : -3, xmag : 0, ymag : 0, zmag : 0, temperature : 4739}
2025-11-18 17:46:54 [DEBUG] MAVLINK [SCALED_PRESSURE] SCALED_PRESSURE {time_boot_ms : 556908, press_abs : 949.1118774414062, press_diff : 0.0, temperature : 4659, temperature_press_diff : 0}
2025-11-18 17:46:54 [DEBUG] MAVLINK [SCALED_PRESSURE2] SCALED_PRESSURE2 {time_boot_ms : 556908, press_abs : 949.1785888671875, press_diff : 0.0, temperature : 4352, temperature_press_diff : 0}
2025-11-18 17:46:54 [DEBUG] MAVLINK [GPS_RAW_INT] GPS_RAW_INT {time_usec : 556712000, fix_type : 4, lat : 174481093, lon : 783809767, alt : 573010, eph : 78, epv : 139, vel : 1, cog : 9919, satellites_visible : 17, alt_ellipsoid : 498915, h_acc : 1367, v_acc : 2403, vel_acc : 389, hdg_acc : 0, yaw : 0}
2025-11-18 17:46:54 [DEBUG] MAVLINK [SYSTEM_TIME] SYSTEM_TIME {time_unix_usec : 1763468214796022, time_boot_ms : 556908}
2025-11-18 17:46:54 [DEBUG] MAVLINK [WIND] WIND {direction : -180.0, speed : 0.0, speed_z : 0.0}
2025-11-18 17:46:54 [DEBUG] MAVLINK [TERRAIN_REPORT] TERRAIN_REPORT {lat : 174481099, lon : 783809758, spacing : 100, terrain_height : 579.7803955078125, current_height : -0.08040846884250641, pending : 0, loaded : 504}
2025-11-18 17:46:54 [DEBUG] MAVLINK [EKF_STATUS_REPORT] EKF_STATUS_REPORT {flags : 831, velocity_variance : 0.01389650534838438, pos_horiz_variance : 0.011069895699620247, pos_vert_variance : 0.008943000808358192, compass_variance : 0.021010499447584152, terrain_alt_variance : 0.0, airspeed_variance : 0.0}
2025-11-18 17:46:54 [DEBUG] MAVLINK [LOCAL_POSITION_NED] LOCAL_POSITION_NED {time_boot_ms : 556910, x : -0.23896551132202148, y : -2.6800343990325928, z : 1.0946515798568726, vx : 0.01258905604481697, vy : 0.0011521547567099333, vz : 0.007273244205862284}
2025-11-18 17:46:54 [DEBUG] MAVLINK [VIBRATION] VIBRATION {time_usec : 556910384, vibration_x : 0.01158276479691267, vibration_y : 0.011428017169237137, vibration_z : 0.008569199591875076, clipping_0 : 0, clipping_1 : 0, clipping_2 : 0}
2025-11-18 17:46:54 [DEBUG] MAVLINK [BATTERY_STATUS] BATTERY_STATUS {id : 0, battery_function : 0, type : 0, temperature : 32767, voltages : [10962, 65535, 65535, 65535, 65535, 65535, 65535, 65535, 65535, 65535], current_battery : 2, current_consumed : 218, energy_consumed : 78, battery_remaining : 95, time_remaining : 0, charge_state : 1, voltages_ext : [0, 0, 0, 0], mode : 0, fault_bitmask : 0}
2025-11-18 17:46:54 [DEBUG] MAVLINK [MCU_STATUS] MCU_STATUS {id : 0, MCU_temperature : 4523, MCU_voltage : 3286, MCU_voltage_min : 3278, MCU_voltage_max : 3298}
2025-11-18 17:46:55 [DEBUG] MAVLINK [HEARTBEAT] HEARTBEAT {type : 2, autopilot : 3, base_mode : 217, custom_mode : 4, system_status : 5, mavlink_version : 3}
2025-11-18 17:46:55 [DEBUG] MAVLINK [AHRS] AHRS {omegaIx : 0.00023779901675879955, omegaIy : 0.00010436090087750927, omegaIz : -0.002421913668513298, accel_weight : 0.0, renorm_val : 0.0, error_rp : 0.01573752611875534, error_yaw : 0.0247789416462183}
2025-11-18 17:46:55 [DEBUG] MAVLINK [AHRS2] AHRS2 {roll : -0.045094117522239685, pitch : -0.00030004949076101184, yaw : 1.849763035774231, altitude : 578.6799926757812, lat : 174481092, lng : 783809769}
2025-11-18 17:46:55 [DEBUG] MAVLINK [ATTITUDE] ATTITUDE {time_boot_ms : 557155, roll : -0.030967414379119873, pitch : -0.004186923615634441, yaw : 1.89167320728302, rollspeed : 0.0008563922601751983, pitchspeed : -0.001911237952299416, yawspeed : -0.02880043536424637}
2025-11-18 17:46:55 [DEBUG] MAVLINK [GLOBAL_POSITION_INT] GLOBAL_POSITION_INT {time_boot_ms : 557155, lat : 174481099, lon : 783809760, alt : 579700, relative_alt : -74, vx : 0, vy : 0, vz : 0, hdg : 10838}
2025-11-18 17:46:55 [DEBUG] MAVLINK [VFR_HUD] VFR_HUD {airspeed : 0.011794631369411945, groundspeed : 0.009670790284872055, heading : 108, throttle : 0, alt : 579.7000122070312, climb : -0.006751973181962967}
2025-11-18 17:46:55 [DEBUG] MAVLINK [SYS_STATUS] SYS_STATUS {onboard_control_sensors_present : 1399913519, onboard_control_sensors_enabled : 1130429487, onboard_control_sensors_health : 1198586927, load : 349, voltage_battery : 10903, current_battery : 1, battery_remaining : 95, drop_rate_comm : 0, errors_comm : 0, errors_count1 : 0, errors_count2 : 0, errors_count3 : 0, errors_count4 : 0}
2025-11-18 17:46:55 [DEBUG] MAVLINK [POWER_STATUS] POWER_STATUS {Vcc : 5273, Vservo : 5030, flags : 5}
2025-11-18 17:46:55 [DEBUG] MAVLINK [MEMINFO] MEMINFO {brkval : 0, freemem : 65535, freemem32 : 572544}
2025-11-18 17:46:55 [DEBUG] MAVLINK [NAV_CONTROLLER_OUTPUT] NAV_CONTROLLER_OUTPUT {nav_roll : -0.00024786219000816345, nav_pitch : -0.0003053537511732429, nav_bearing : 108, target_bearing : 0, wp_dist : 0, alt_error : 0.0, aspd_error : 0.0, xtrack_error : 0.0}
2025-11-18 17:46:55 [DEBUG] MAVLINK [MISSION_CURRENT] MISSION_CURRENT {seq : 0, total : 0, mission_state : 1, mission_mode : 0}
2025-11-18 17:46:55 [DEBUG] MAVLINK [SERVO_OUTPUT_RAW] SERVO_OUTPUT_RAW {time_usec : 557155912, port : 0, servo1_raw : 1100, servo2_raw : 1100, servo3_raw : 1100, servo4_raw : 1100, servo5_raw : 0, servo6_raw : 0, servo7_raw : 0, servo8_raw : 0, servo9_raw : 0, servo10_raw : 0, servo11_raw : 0, servo12_raw : 0, servo13_raw : 0, servo14_raw : 0, servo15_raw : 0, servo16_raw : 0}
2025-11-18 17:46:55 [DEBUG] MAVLINK [RC_CHANNELS] RC_CHANNELS {time_boot_ms : 557155, chancount : 0, chan1_raw : 0, chan2_raw : 0, chan3_raw : 0, chan4_raw : 0, chan5_raw : 0, chan6_raw : 0, chan7_raw : 0, chan8_raw : 0, chan9_raw : 0, chan10_raw : 0, chan11_raw : 0, chan12_raw : 0, chan13_raw : 0, chan14_raw : 0, chan15_raw : 0, chan16_raw : 0, chan17_raw : 0, chan18_raw : 0, rssi : 255}
