2025-11-18 17:43:56 [INFO] Logger initialized.
2025-11-18 17:43:56 [INFO] Log file: logs/drone_log_2025-11-18_17-43-56.log
2025-11-18 17:44:02 [INFO] Connected to FC on /dev/ttyACM0@115200
2025-11-18 17:44:02 [INFO] Checking pre-arm conditions...
2025-11-18 17:44:02 [INFO] Saved HOME: lat=17.4481037, lon=78.3809907, alt=-0.067
2025-11-18 17:44:02 [INFO] Arming motors...
2025-11-18 17:44:02 [INFO] Waiting for motors to arm...
2025-11-18 17:44:02 [DEBUG] MAVLINK [COMMAND_ACK] COMMAND_ACK {command : 176, result : 0, progress : 0, result_param2 : 0, target_system : 255, target_component : 0}
2025-11-18 17:44:02 [DEBUG] MAVLINK [COMMAND_ACK] COMMAND_ACK {command : 400, result : 0, progress : 0, result_param2 : 0, target_system : 255, target_component : 0}
2025-11-18 17:44:02 [DEBUG] MAVLINK [GPS_GLOBAL_ORIGIN] GPS_GLOBAL_ORIGIN {latitude : 174481120, longitude : 783810011, altitude : 580800, time_usec : 384065990}
2025-11-18 17:44:02 [DEBUG] MAVLINK [HOME_POSITION] HOME_POSITION {latitude : 174481037, longitude : 783809907, altitude : 579870, x : -0.9239464402198792, y : -1.1044483184814453, z : 0.9300000071525574, q : [nan, nan, nan, nan], approach_x : 0.0, approach_y : 0.0, approach_z : 0.0, time_usec : 384066027}
2025-11-18 17:44:02 [DEBUG] MAVLINK [STATUSTEXT] STATUSTEXT {severity : 4, text : Warning: Arming Checks Disabled, id : 0, chunk_seq : 0}
2025-11-18 17:44:02 [DEBUG] MAVLINK [HEARTBEAT] HEARTBEAT {type : 27, autopilot : 8, base_mode : 4, custom_mode : 0, system_status : 4, mavlink_version : 3}
2025-11-18 17:44:02 [DEBUG] MAVLINK [AHRS] AHRS {omegaIx : 0.0002054196229437366, omegaIy : 7.701568392803892e-06, omegaIz : -0.0007915635942481458, accel_weight : 0.0, renorm_val : 0.0, error_rp : 0.007214651443064213, error_yaw : 0.0038611674681305885}
2025-11-18 17:44:02 [DEBUG] MAVLINK [AHRS2] AHRS2 {roll : -0.053577154874801636, pitch : -0.0032900222577154636, yaw : 1.9321163892745972, altitude : 578.760009765625, lat : 174481031, lng : 783809906}
2025-11-18 17:44:02 [DEBUG] MAVLINK [ATTITUDE] ATTITUDE {time_boot_ms : 384305, roll : -0.0544307567179203, pitch : -0.003568577580153942, yaw : 1.9341458082199097, rollspeed : 0.00018682607333175838, pitchspeed : -0.00016398608568124473, yawspeed : 0.000728946237359196}
2025-11-18 17:44:02 [DEBUG] MAVLINK [GLOBAL_POSITION_INT] GLOBAL_POSITION_INT {time_boot_ms : 384305, lat : 174481036, lon : 783809907, alt : 579860, relative_alt : -1, vx : 0, vy : 0, vz : 0, hdg : 11081}
2025-11-18 17:44:02 [DEBUG] MAVLINK [VFR_HUD] VFR_HUD {airspeed : 0.010446267202496529, groundspeed : 0.005119736772030592, heading : 110, throttle : 0, alt : 579.8599853515625, climb : -0.00910564698278904}
2025-11-18 17:44:02 [DEBUG] MAVLINK [SYS_STATUS] SYS_STATUS {onboard_control_sensors_present : 1399913519, onboard_control_sensors_enabled : 1130429487, onboard_control_sensors_health : 1198586895, load : 317, voltage_battery : 11037, current_battery : 1, battery_remaining : 99, drop_rate_comm : 0, errors_comm : 0, errors_count1 : 0, errors_count2 : 0, errors_count3 : 0, errors_count4 : 0}
2025-11-18 17:44:02 [DEBUG] MAVLINK [POWER_STATUS] POWER_STATUS {Vcc : 5280, Vservo : 5038, flags : 5}
2025-11-18 17:44:02 [DEBUG] MAVLINK [MEMINFO] MEMINFO {brkval : 0, freemem : 65535, freemem32 : 571776}
2025-11-18 17:44:02 [DEBUG] MAVLINK [NAV_CONTROLLER_OUTPUT] NAV_CONTROLLER_OUTPUT {nav_roll : -0.0001895563764264807, nav_pitch : 0.0003344935830682516, nav_bearing : 110, target_bearing : 0, wp_dist : 0, alt_error : 0.0, aspd_error : 0.0, xtrack_error : 0.0}
2025-11-18 17:44:02 [DEBUG] MAVLINK [MISSION_CURRENT] MISSION_CURRENT {seq : 0, total : 0, mission_state : 1, mission_mode : 0}
2025-11-18 17:44:02 [DEBUG] MAVLINK [SERVO_OUTPUT_RAW] SERVO_OUTPUT_RAW {time_usec : 384305906, port : 0, servo1_raw : 1000, servo2_raw : 1000, servo3_raw : 1000, servo4_raw : 1000, servo5_raw : 0, servo6_raw : 0, servo7_raw : 0, servo8_raw : 0, servo9_raw : 0, servo10_raw : 0, servo11_raw : 0, servo12_raw : 0, servo13_raw : 0, servo14_raw : 0, servo15_raw : 0, servo16_raw : 0}
2025-11-18 17:44:02 [DEBUG] MAVLINK [RC_CHANNELS] RC_CHANNELS {time_boot_ms : 384305, chancount : 0, chan1_raw : 0, chan2_raw : 0, chan3_raw : 0, chan4_raw : 0, chan5_raw : 0, chan6_raw : 0, chan7_raw : 0, chan8_raw : 0, chan9_raw : 0, chan10_raw : 0, chan11_raw : 0, chan12_raw : 0, chan13_raw : 0, chan14_raw : 0, chan15_raw : 0, chan16_raw : 0, chan17_raw : 0, chan18_raw : 0, rssi : 255}
2025-11-18 17:44:02 [DEBUG] MAVLINK [RAW_IMU] RAW_IMU {time_usec : 384305936, xacc : 10, yacc : 78, zacc : -998, xgyro : 0, ygyro : 0, zgyro : 1, xmag : -111, ymag : -294, zmag : 100, id : 0, temperature : 4480}
2025-11-18 17:44:02 [DEBUG] MAVLINK [SCALED_IMU2] SCALED_IMU2 {time_boot_ms : 384305, xacc : 12, yacc : 75, zacc : -999, xgyro : 0, ygyro : -1, zgyro : 0, xmag : -153, ymag : -378, zmag : 147, temperature : 4856}
2025-11-18 17:44:02 [DEBUG] MAVLINK [SCALED_IMU3] SCALED_IMU3 {time_boot_ms : 384305, xacc : 19, yacc : 68, zacc : -1001, xgyro : -2, ygyro : 1, zgyro : -1, xmag : 0, ymag : 0, zmag : 0, temperature : 4778}
2025-11-18 17:44:02 [DEBUG] MAVLINK [SCALED_PRESSURE] SCALED_PRESSURE {time_boot_ms : 384305, press_abs : 949.1138916015625, press_diff : 0.0, temperature : 4656, temperature_press_diff : 0}
2025-11-18 17:44:02 [DEBUG] MAVLINK [SCALED_PRESSURE2] SCALED_PRESSURE2 {time_boot_ms : 384308, press_abs : 949.1612548828125, press_diff : 0.0, temperature : 4392, temperature_press_diff : 0}
2025-11-18 17:44:02 [DEBUG] MAVLINK [GPS_RAW_INT] GPS_RAW_INT {time_usec : 384112000, fix_type : 4, lat : 174481032, lon : 783809906, alt : 574330, eph : 77, epv : 138, vel : 7, cog : 18517, satellites_visible : 17, alt_ellipsoid : 500235, h_acc : 930, v_acc : 1482, vel_acc : 271, hdg_acc : 0, yaw : 0}
2025-11-18 17:44:02 [DEBUG] MAVLINK [SYSTEM_TIME] SYSTEM_TIME {time_unix_usec : 1763468042195911, time_boot_ms : 384308}
2025-11-18 17:44:02 [DEBUG] MAVLINK [WIND] WIND {direction : -180.0, speed : 0.0, speed_z : 0.0}
2025-11-18 17:44:02 [DEBUG] MAVLINK [TERRAIN_REPORT] TERRAIN_REPORT {lat : 174481036, lon : 783809907, spacing : 100, terrain_height : 579.8699951171875, current_height : -0.010008078068494797, pending : 0, loaded : 504}
2025-11-18 17:44:02 [DEBUG] MAVLINK [EKF_STATUS_REPORT] EKF_STATUS_REPORT {flags : 831, velocity_variance : 0.026392284780740738, pos_horiz_variance : 0.0064283511601388454, pos_vert_variance : 0.001674631959758699, compass_variance : 0.004425825551152229, terrain_alt_variance : 0.0, airspeed_variance : 0.0}
2025-11-18 17:44:02 [DEBUG] MAVLINK [LOCAL_POSITION_NED] LOCAL_POSITION_NED {time_boot_ms : 384308, x : -0.9459698796272278, y : -1.1079758405685425, z : 0.9315019249916077, vx : -0.004162922035902739, vy : -0.0029551938641816378, vz : 0.009110679849982262}
2025-11-18 17:44:02 [DEBUG] MAVLINK [VIBRATION] VIBRATION {time_usec : 384308296, vibration_x : 0.007692346349358559, vibration_y : 0.007089222315698862, vibration_z : 0.00789704080671072, clipping_0 : 0, clipping_1 : 0, clipping_2 : 0}
2025-11-18 17:44:02 [DEBUG] MAVLINK [BATTERY_STATUS] BATTERY_STATUS {id : 0, battery_function : 0, type : 0, temperature : 32767, voltages : [11037, 65535, 65535, 65535, 65535, 65535, 65535, 65535, 65535, 65535], current_battery : 1, current_consumed : 2, energy_consumed : 0, battery_remaining : 99, time_remaining : 0, charge_state : 1, voltages_ext : [0, 0, 0, 0], mode : 0, fault_bitmask : 0}
2025-11-18 17:44:02 [DEBUG] MAVLINK [MCU_STATUS] MCU_STATUS {id : 0, MCU_temperature : 4548, MCU_voltage : 3286, MCU_voltage_min : 3276, MCU_voltage_max : 3295}
2025-11-18 17:44:02 [DEBUG] MAVLINK [HEARTBEAT] HEARTBEAT {type : 2, autopilot : 3, base_mode : 217, custom_mode : 4, system_status : 5, mavlink_version : 3}
2025-11-18 17:44:02 [DEBUG] MAVLINK [AHRS] AHRS {omegaIx : 0.00020570763444993645, omegaIy : 5.897353275940986e-06, omegaIz : -0.0007933243759907782, accel_weight : 0.0, renorm_val : 0.0, error_rp : 0.008308511227369308, error_yaw : 0.0034624673426151276}
2025-11-18 17:44:02 [DEBUG] MAVLINK [AHRS2] AHRS2 {roll : -0.054037343710660934, pitch : -0.00270495330914855, yaw : 1.9319723844528198, altitude : 579.0700073242188, lat : 174481032, lng : 783809907}
2025-11-18 17:44:02 [DEBUG] MAVLINK [ATTITUDE] ATTITUDE {time_boot_ms : 384555, roll : -0.05432656779885292, pitch : -0.0035280389711260796, yaw : 1.9341882467269897, rollspeed : 9.309977031080052e-05, pitchspeed : 0.00017891607421915978, yawspeed : -0.00011807918781414628}
2025-11-18 17:44:02 [DEBUG] MAVLINK [GLOBAL_POSITION_INT] GLOBAL_POSITION_INT {time_boot_ms : 384555, lat : 174481034, lon : 783809907, alt : 579850, relative_alt : -14, vx : 0, vy : 0, vz : 1, hdg : 11082}
2025-11-18 17:44:02 [DEBUG] MAVLINK [VFR_HUD] VFR_HUD {airspeed : 0.016908548772335052, groundspeed : 0.010253754444420338, heading : 110, throttle : 0, alt : 579.8499755859375, climb : -0.013444685377180576}
2025-11-18 17:44:02 [DEBUG] MAVLINK [SYS_STATUS] SYS_STATUS {onboard_control_sensors_present : 1399913519, onboard_control_sensors_enabled : 1130429487, onboard_control_sensors_health : 1198586895, load : 336, voltage_battery : 11026, current_battery : 1, battery_remaining : 99, drop_rate_comm : 0, errors_comm : 0, errors_count1 : 0, errors_count2 : 0, errors_count3 : 0, errors_count4 : 0}
2025-11-18 17:44:02 [DEBUG] MAVLINK [POWER_STATUS] POWER_STATUS {Vcc : 5269, Vservo : 5040, flags : 5}
2025-11-18 17:44:02 [DEBUG] MAVLINK [MEMINFO] MEMINFO {brkval : 0, freemem : 65535, freemem32 : 570384}
2025-11-18 17:44:02 [DEBUG] MAVLINK [NAV_CONTROLLER_OUTPUT] NAV_CONTROLLER_OUTPUT {nav_roll : -0.00018955628911498934, nav_pitch : 0.0003344934375490993, nav_bearing : 110, target_bearing : 0, wp_dist : 0, alt_error : 0.0, aspd_error : 0.0, xtrack_error : 0.0}
2025-11-18 17:44:02 [DEBUG] MAVLINK [MISSION_CURRENT] MISSION_CURRENT {seq : 0, total : 0, mission_state : 1, mission_mode : 0}
2025-11-18 17:44:02 [DEBUG] MAVLINK [SERVO_OUTPUT_RAW] SERVO_OUTPUT_RAW {time_usec : 384555918, port : 0, servo1_raw : 1000, servo2_raw : 1000, servo3_raw : 1000, servo4_raw : 1000, servo5_raw : 0, servo6_raw : 0, servo7_raw : 0, servo8_raw : 0, servo9_raw : 0, servo10_raw : 0, servo11_raw : 0, servo12_raw : 0, servo13_raw : 0, servo14_raw : 0, servo15_raw : 0, servo16_raw : 0}
2025-11-18 17:44:02 [DEBUG] MAVLINK [RC_CHANNELS] RC_CHANNELS {time_boot_ms : 384555, chancount : 0, chan1_raw : 0, chan2_raw : 0, chan3_raw : 0, chan4_raw : 0, chan5_raw : 0, chan6_raw : 0, chan7_raw : 0, chan8_raw : 0, chan9_raw : 0, chan10_raw : 0, chan11_raw : 0, chan12_raw : 0, chan13_raw : 0, chan14_raw : 0, chan15_raw : 0, chan16_raw : 0, chan17_raw : 0, chan18_raw : 0, rssi : 255}
2025-11-18 17:44:02 [DEBUG] MAVLINK [RAW_IMU] RAW_IMU {time_usec : 384555986, xacc : 10, yacc : 78, zacc : -998, xgyro : 0, ygyro : 0, zgyro : 0, xmag : -112, ymag : -293, zmag : 100, id : 0, temperature : 4480}
2025-11-18 17:44:02 [DEBUG] MAVLINK [SCALED_IMU2] SCALED_IMU2 {time_boot_ms : 384555, xacc : 13, yacc : 75, zacc : -998, xgyro : 0, ygyro : 0, zgyro : -1, xmag : -154, ymag : -362, zmag : 162, temperature : 4857}
2025-11-18 17:44:02 [DEBUG] MAVLINK [SCALED_IMU3] SCALED_IMU3 {time_boot_ms : 384556, xacc : 17, yacc : 68, zacc : -1000, xgyro : -2, ygyro : 2, zgyro : -1, xmag : 0, ymag : 0, zmag : 0, temperature : 4779}
2025-11-18 17:44:02 [DEBUG] MAVLINK [SCALED_PRESSURE] SCALED_PRESSURE {time_boot_ms : 384556, press_abs : 949.0783081054688, press_diff : 0.0, temperature : 4656, temperature_press_diff : 0}
2025-11-18 17:44:02 [DEBUG] MAVLINK [SCALED_PRESSURE2] SCALED_PRESSURE2 {time_boot_ms : 384556, press_abs : 949.1724853515625, press_diff : 0.0, temperature : 4393, temperature_press_diff : 0}
2025-11-18 17:44:02 [DEBUG] MAVLINK [GPS_RAW_INT] GPS_RAW_INT {time_usec : 384512000, fix_type : 4, lat : 174481032, lon : 783809907, alt : 574390, eph : 77, epv : 138, vel : 1, cog : 18517, satellites_visible : 17, alt_ellipsoid : 500295, h_acc : 927, v_acc : 1478, vel_acc : 290, hdg_acc : 0, yaw : 0}
2025-11-18 17:44:02 [DEBUG] MAVLINK [SYSTEM_TIME] SYSTEM_TIME {time_unix_usec : 1763468042445934, time_boot_ms : 384558}
2025-11-18 17:44:02 [DEBUG] MAVLINK [WIND] WIND {direction : -180.0, speed : 0.0, speed_z : 0.0}
2025-11-18 17:44:02 [DEBUG] MAVLINK [TERRAIN_REPORT] TERRAIN_REPORT {lat : 174481034, lon : 783809907, spacing : 100, terrain_height : 579.8698120117188, current_height : -0.01982497237622738, pending : 0, loaded : 504}
2025-11-18 17:44:02 [DEBUG] MAVLINK [EKF_STATUS_REPORT] EKF_STATUS_REPORT {flags : 831, velocity_variance : 0.011010967195034027, pos_horiz_variance : 0.0036762645468115807, pos_vert_variance : 0.007862470112740993, compass_variance : 0.00022353277017828077, terrain_alt_variance : 0.0, airspeed_variance : 0.0}
2025-11-18 17:44:02 [DEBUG] MAVLINK [LOCAL_POSITION_NED] LOCAL_POSITION_NED {time_boot_ms : 384558, x : -0.9583863615989685, y : -1.1094056367874146, z : 0.9445707201957703, vx : -0.009571884758770466, vy : -0.0036511151120066643, vz : 0.013453768566250801}
2025-11-18 17:44:02 [DEBUG] MAVLINK [VIBRATION] VIBRATION {time_usec : 384558274, vibration_x : 0.009283550083637238, vibration_y : 0.007697015535086393, vibration_z : 0.008073335513472557, clipping_0 : 0, clipping_1 : 0, clipping_2 : 0}
2025-11-18 17:44:02 [DEBUG] MAVLINK [BATTERY_STATUS] BATTERY_STATUS {id : 0, battery_function : 0, type : 0, temperature : 32767, voltages : [11026, 65535, 65535, 65535, 65535, 65535, 65535, 65535, 65535, 65535], current_battery : 1, current_consumed : 2, energy_consumed : 0, battery_remaining : 99, time_remaining : 0, charge_state : 1, voltages_ext : [0, 0, 0, 0], mode : 0, fault_bitmask : 0}
2025-11-18 17:44:02 [DEBUG] MAVLINK [MCU_STATUS] MCU_STATUS {id : 0, MCU_temperature : 4550, MCU_voltage : 3286, MCU_voltage_min : 3280, MCU_voltage_max : 3294}
2025-11-18 17:44:02 [DEBUG] MAVLINK [HEARTBEAT] HEARTBEAT {type : 6, autopilot : 8, base_mode : 192, custom_mode : 0, system_status : 4, mavlink_version : 3}
2025-11-18 17:44:02 [DEBUG] MAVLINK [AHRS] AHRS {omegaIx : 0.00020805126405321062, omegaIy : -4.374052480216051e-07, omegaIz : -0.000793942017480731, accel_weight : 0.0, renorm_val : 0.0, error_rp : 0.011190099641680717, error_yaw : 0.0030877988319844007}
2025-11-18 17:44:02 [DEBUG] MAVLINK [AHRS2] AHRS2 {roll : -0.05389546975493431, pitch : -0.002996871480718255, yaw : 1.9317926168441772, altitude : 578.8399658203125, lat : 174481031, lng : 783809908}
2025-11-18 17:44:02 [DEBUG] MAVLINK [ATTITUDE] ATTITUDE {time_boot_ms : 384805, roll : -0.05434497818350792, pitch : -0.0035857250913977623, yaw : 1.9342023134231567, rollspeed : -0.0003975810541305691, pitchspeed : -3.496734279906377e-05, yawspeed : 8.745025843381882e-05}
2025-11-18 17:44:02 [DEBUG] MAVLINK [GLOBAL_POSITION_INT] GLOBAL_POSITION_INT {time_boot_ms : 384805, lat : 174481034, lon : 783809907, alt : 579840, relative_alt : -24, vx : -1, vy : 0, vz : 1, hdg : 11082}
2025-11-18 17:44:02 [DEBUG] MAVLINK [VFR_HUD] VFR_HUD {airspeed : 0.020914776250720024, groundspeed : 0.012957756407558918, heading : 110, throttle : 0, alt : 579.8399658203125, climb : -0.01641719974577427}
2025-11-18 17:44:02 [DEBUG] MAVLINK [SYS_STATUS] SYS_STATUS {onboard_control_sensors_present : 1399913519, onboard_control_sensors_enabled : 1130429487, onboard_control_sensors_health : 1198586895, load : 329, voltage_battery : 11032, current_battery : 1, battery_remaining : 99, drop_rate_comm : 0, errors_comm : 0, errors_count1 : 0, errors_count2 : 0, errors_count3 : 0, errors_count4 : 0}
2025-11-18 17:44:02 [DEBUG] MAVLINK [POWER_STATUS] POWER_STATUS {Vcc : 5274, Vservo : 5035, flags : 5}
2025-11-18 17:44:02 [DEBUG] MAVLINK [MEMINFO] MEMINFO {brkval : 0, freemem : 65535, freemem32 : 563624}
2025-11-18 17:44:02 [DEBUG] MAVLINK [NAV_CONTROLLER_OUTPUT] NAV_CONTROLLER_OUTPUT {nav_roll : -0.00018955628911498934, nav_pitch : 0.0003344935248605907, nav_bearing : 110, target_bearing : 0, wp_dist : 0, alt_error : 0.0, aspd_error : 0.0, xtrack_error : 0.0}
2025-11-18 17:44:02 [DEBUG] MAVLINK [MISSION_CURRENT] MISSION_CURRENT {seq : 0, total : 0, mission_state : 1, mission_mode : 0}
2025-11-18 17:44:02 [DEBUG] MAVLINK [SERVO_OUTPUT_RAW] SERVO_OUTPUT_RAW {time_usec : 384805881, port : 0, servo1_raw : 1000, servo2_raw : 1000, servo3_raw : 1000, servo4_raw : 1000, servo5_raw : 0, servo6_raw : 0, servo7_raw : 0, servo8_raw : 0, servo9_raw : 0, servo10_raw : 0, servo11_raw : 0, servo12_raw : 0, servo13_raw : 0, servo14_raw : 0, servo15_raw : 0, servo16_raw : 0}
2025-11-18 17:44:02 [DEBUG] MAVLINK [RC_CHANNELS] RC_CHANNELS {time_boot_ms : 384805, chancount : 0, chan1_raw : 0, chan2_raw : 0, chan3_raw : 0, chan4_raw : 0, chan5_raw : 0, chan6_raw : 0, chan7_raw : 0, chan8_raw : 0, chan9_raw : 0, chan10_raw : 0, chan11_raw : 0, chan12_raw : 0, chan13_raw : 0, chan14_raw : 0, chan15_raw : 0, chan16_raw : 0, chan17_raw : 0, chan18_raw : 0, rssi : 255}
2025-11-18 17:44:02 [DEBUG] MAVLINK [RAW_IMU] RAW_IMU {time_usec : 384805919, xacc : 10, yacc : 78, zacc : -997, xgyro : 0, ygyro : 0, zgyro : 0, xmag : -110, ymag : -295, zmag : 99, id : 0, temperature : 4480}
2025-11-18 17:44:02 [DEBUG] MAVLINK [SCALED_IMU2] SCALED_IMU2 {time_boot_ms : 384808, xacc : 12, yacc : 76, zacc : -996, xgyro : 2, ygyro : 0, zgyro : 0, xmag : -166, ymag : -383, zmag : 143, temperature : 4856}
2025-11-18 17:44:02 [DEBUG] MAVLINK [SCALED_IMU3] SCALED_IMU3 {time_boot_ms : 384808, xacc : 20, yacc : 67, zacc : -1000, xgyro : -5, ygyro : 0, zgyro : 0, xmag : 0, ymag : 0, zmag : 0, temperature : 4778}
2025-11-18 17:44:02 [DEBUG] MAVLINK [SCALED_PRESSURE] SCALED_PRESSURE {time_boot_ms : 384808, press_abs : 949.1044311523438, press_diff : 0.0, temperature : 4656, temperature_press_diff : 0}
2025-11-18 17:44:02 [DEBUG] MAVLINK [SCALED_PRESSURE2] SCALED_PRESSURE2 {time_boot_ms : 384808, press_abs : 949.1887817382812, press_diff : 0.0, temperature : 4393, temperature_press_diff : 0}
2025-11-18 17:44:02 [DEBUG] MAVLINK [GPS_RAW_INT] GPS_RAW_INT {time_usec : 384712000, fix_type : 4, lat : 174481031, lon : 783809908, alt : 574410, eph : 77, epv : 138, vel : 6, cog : 18517, satellites_visible : 17, alt_ellipsoid : 500315, h_acc : 926, v_acc : 1476, vel_acc : 260, hdg_acc : 0, yaw : 0}
2025-11-18 17:44:02 [DEBUG] MAVLINK [SYSTEM_TIME] SYSTEM_TIME {time_unix_usec : 1763468042696070, time_boot_ms : 384808}
2025-11-18 17:44:02 [DEBUG] MAVLINK [WIND] WIND {direction : -180.0, speed : 0.0, speed_z : 0.0}
2025-11-18 17:44:02 [DEBUG] MAVLINK [TERRAIN_REPORT] TERRAIN_REPORT {lat : 174481034, lon : 783809907, spacing : 100, terrain_height : 579.8698120117188, current_height : -0.02982497215270996, pending : 0, loaded : 504}
2025-11-18 17:44:02 [DEBUG] MAVLINK [EKF_STATUS_REPORT] EKF_STATUS_REPORT {flags : 831, velocity_variance : 0.020590519532561302, pos_horiz_variance : 0.005276367999613285, pos_vert_variance : 0.015882384032011032, compass_variance : 0.002897529862821102, terrain_alt_variance : 0.0, airspeed_variance : 0.0}
2025-11-18 17:44:02 [DEBUG] MAVLINK [LOCAL_POSITION_NED] LOCAL_POSITION_NED {time_boot_ms : 384808, x : -0.9672191143035889, y : -1.1069560050964355, z : 0.9543591141700745, vx : -0.012905489653348923, vy : 0.0008507351740263402, vz : 0.01641480252146721}
2025-11-18 17:44:02 [DEBUG] MAVLINK [VIBRATION] VIBRATION {time_usec : 384808376, vibration_x : 0.008975890465080738, vibration_y : 0.007698469329625368, vibration_z : 0.008456583134829998, clipping_0 : 0, clipping_1 : 0, clipping_2 : 0}
2025-11-18 17:44:02 [DEBUG] MAVLINK [BATTERY_STATUS] BATTERY_STATUS {id : 0, battery_function : 0, type : 0, temperature : 32767, voltages : [11032, 65535, 65535, 65535, 65535, 65535, 65535, 65535, 65535, 65535], current_battery : 1, current_consumed : 2, energy_consumed : 0, battery_remaining : 99, time_remaining : 0, charge_state : 1, voltages_ext : [0, 0, 0, 0], mode : 0, fault_bitmask : 0}
2025-11-18 17:44:02 [DEBUG] MAVLINK [MCU_STATUS] MCU_STATUS {id : 0, MCU_temperature : 4550, MCU_voltage : 3286, MCU_voltage_min : 3280, MCU_voltage_max : 3292}
2025-11-18 17:44:03 [DEBUG] MAVLINK [AHRS] AHRS {omegaIx : 0.00021029515482950956, omegaIy : -3.1150009363045683e-06, omegaIz : -0.0007958324276842177, accel_weight : 0.0, renorm_val : 0.0, error_rp : 0.010388997383415699, error_yaw : 0.00324046378955245}
2025-11-18 17:44:03 [DEBUG] MAVLINK [AHRS2] AHRS2 {roll : -0.053388308733701706, pitch : -0.003279343945905566, yaw : 1.9316014051437378, altitude : 579.0399780273438, lat : 174481030, lng : 783809909}
2025-11-18 17:44:03 [DEBUG] MAVLINK [ATTITUDE] ATTITUDE {time_boot_ms : 385055, roll : -0.05426130071282387, pitch : -0.0037483451887965202, yaw : 1.9342732429504395, rollspeed : -8.835447079036385e-05, pitchspeed : -8.908559539122507e-05, yawspeed : 0.0006749736494384706}
2025-11-18 17:44:03 [DEBUG] MAVLINK [GLOBAL_POSITION_INT] GLOBAL_POSITION_INT {time_boot_ms : 385055, lat : 174481032, lon : 783809907, alt : 579840, relative_alt : -29, vx : -2, vy : 1, vz : 1, hdg : 11082}
2025-11-18 17:44:03 [DEBUG] MAVLINK [VFR_HUD] VFR_HUD {airspeed : 0.03148675337433815, groundspeed : 0.026644060388207436, heading : 110, throttle : 0, alt : 579.8399658203125, climb : -0.01677824929356575}
2025-11-18 17:44:03 [DEBUG] MAVLINK [SYS_STATUS] SYS_STATUS {onboard_control_sensors_present : 1399913519, onboard_control_sensors_enabled : 1130429487, onboard_control_sensors_health : 1198586895, load : 318, voltage_battery : 11024, current_battery : 2, battery_remaining : 99, drop_rate_comm : 0, errors_comm : 0, errors_count1 : 0, errors_count2 : 0, errors_count3 : 0, errors_count4 : 0}
2025-11-18 17:44:03 [DEBUG] MAVLINK [POWER_STATUS] POWER_STATUS {Vcc : 5275, Vservo : 5030, flags : 5}
2025-11-18 17:44:03 [DEBUG] MAVLINK [MEMINFO] MEMINFO {brkval : 0, freemem : 65535, freemem32 : 563624}
2025-11-18 17:44:03 [DEBUG] MAVLINK [NAV_CONTROLLER_OUTPUT] NAV_CONTROLLER_OUTPUT {nav_roll : -0.00018955634732265025, nav_pitch : 0.00033449361217208207, nav_bearing : 110, target_bearing : 0, wp_dist : 0, alt_error : 0.0, aspd_error : 0.0, xtrack_error : 0.0}
2025-11-18 17:44:03 [DEBUG] MAVLINK [MISSION_CURRENT] MISSION_CURRENT {seq : 0, total : 0, mission_state : 1, mission_mode : 0}
2025-11-18 17:44:03 [DEBUG] MAVLINK [SERVO_OUTPUT_RAW] SERVO_OUTPUT_RAW {time_usec : 385055849, port : 0, servo1_raw : 1000, servo2_raw : 1000, servo3_raw : 1000, servo4_raw : 1000, servo5_raw : 0, servo6_raw : 0, servo7_raw : 0, servo8_raw : 0, servo9_raw : 0, servo10_raw : 0, servo11_raw : 0, servo12_raw : 0, servo13_raw : 0, servo14_raw : 0, servo15_raw : 0, servo16_raw : 0}
2025-11-18 17:44:03 [INFO] Taking off to 3.0 meters...
2025-11-18 17:44:03 [DEBUG] MAVLINK [RC_CHANNELS] RC_CHANNELS {time_boot_ms : 385058, chancount : 0, chan1_raw : 0, chan2_raw : 0, chan3_raw : 0, chan4_raw : 0, chan5_raw : 0, chan6_raw : 0, chan7_raw : 0, chan8_raw : 0, chan9_raw : 0, chan10_raw : 0, chan11_raw : 0, chan12_raw : 0, chan13_raw : 0, chan14_raw : 0, chan15_raw : 0, chan16_raw : 0, chan17_raw : 0, chan18_raw : 0, rssi : 255}
2025-11-18 17:44:03 [DEBUG] Altitude: -0.03m
2025-11-18 17:44:03 [DEBUG] MAVLINK [RAW_IMU] RAW_IMU {time_usec : 385058069, xacc : 10, yacc : 78, zacc : -998, xgyro : 0, ygyro : 0, zgyro : 1, xmag : -112, ymag : -295, zmag : 99, id : 0, temperature : 4480}
2025-11-18 17:44:03 [DEBUG] MAVLINK [SCALED_IMU2] SCALED_IMU2 {time_boot_ms : 385058, xacc : 13, yacc : 74, zacc : -997, xgyro : 0, ygyro : 0, zgyro : -1, xmag : -151, ymag : -383, zmag : 148, temperature : 4857}
2025-11-18 17:44:03 [DEBUG] MAVLINK [SCALED_IMU3] SCALED_IMU3 {time_boot_ms : 385058, xacc : 19, yacc : 68, zacc : -999, xgyro : -1, ygyro : 0, zgyro : 1, xmag : 0, ymag : 0, zmag : 0, temperature : 4779}
2025-11-18 17:44:03 [DEBUG] MAVLINK [SCALED_PRESSURE] SCALED_PRESSURE {time_boot_ms : 385058, press_abs : 949.0823974609375, press_diff : 0.0, temperature : 4656, temperature_press_diff : 0}
2025-11-18 17:44:03 [DEBUG] MAVLINK [SCALED_PRESSURE2] SCALED_PRESSURE2 {time_boot_ms : 385058, press_abs : 949.1646728515625, press_diff : 0.0, temperature : 4393, temperature_press_diff : 0}
2025-11-18 17:44:03 [DEBUG] MAVLINK [GPS_RAW_INT] GPS_RAW_INT {time_usec : 384912000, fix_type : 4, lat : 174481031, lon : 783809909, alt : 574450, eph : 77, epv : 138, vel : 5, cog : 18517, satellites_visible : 17, alt_ellipsoid : 500355, h_acc : 924, v_acc : 1473, vel_acc : 251, hdg_acc : 0, yaw : 0}
2025-11-18 17:44:03 [DEBUG] MAVLINK [SYSTEM_TIME] SYSTEM_TIME {time_unix_usec : 1763468042946070, time_boot_ms : 385058}
2025-11-18 17:44:03 [DEBUG] MAVLINK [WIND] WIND {direction : -180.0, speed : 0.0, speed_z : 0.0}
2025-11-18 17:44:03 [DEBUG] MAVLINK [TERRAIN_REPORT] TERRAIN_REPORT {lat : 174481032, lon : 783809907, spacing : 100, terrain_height : 579.8697509765625, current_height : -0.02976393699645996, pending : 0, loaded : 504}
2025-11-18 17:44:03 [DEBUG] MAVLINK [EKF_STATUS_REPORT] EKF_STATUS_REPORT {flags : 831, velocity_variance : 0.017063947394490242, pos_horiz_variance : 0.004158899653702974, pos_vert_variance : 0.0062819733284413815, compass_variance : 0.003060688730329275, terrain_alt_variance : 0.0, airspeed_variance : 0.0}
2025-11-18 17:44:03 [DEBUG] MAVLINK [LOCAL_POSITION_NED] LOCAL_POSITION_NED {time_boot_ms : 385058, x : -0.9802420735359192, y : -1.0982483625411987, z : 0.9595397114753723, vx : -0.02369844727218151, vy : 0.012260718271136284, vz : 0.01681041345000267}
2025-11-18 17:44:03 [DEBUG] MAVLINK [VIBRATION] VIBRATION {time_usec : 385060423, vibration_x : 0.008207282982766628, vibration_y : 0.007058808114379644, vibration_z : 0.008775100111961365, clipping_0 : 0, clipping_1 : 0, clipping_2 : 0}
2025-11-18 17:44:03 [DEBUG] MAVLINK [BATTERY_STATUS] BATTERY_STATUS {id : 0, battery_function : 0, type : 0, temperature : 32767, voltages : [11024, 65535, 65535, 65535, 65535, 65535, 65535, 65535, 65535, 65535], current_battery : 2, current_consumed : 2, energy_consumed : 0, battery_remaining : 99, time_remaining : 0, charge_state : 1, voltages_ext : [0, 0, 0, 0], mode : 0, fault_bitmask : 0}
2025-11-18 17:44:03 [DEBUG] MAVLINK [MCU_STATUS] MCU_STATUS {id : 0, MCU_temperature : 4548, MCU_voltage : 3286, MCU_voltage_min : 3278, MCU_voltage_max : 3292}
2025-11-18 17:44:03 [DEBUG] MAVLINK [COMMAND_ACK] COMMAND_ACK {command : 22, result : 0, progress : 0, result_param2 : 0, target_system : 255, target_component : 0}
2025-11-18 17:44:03 [DEBUG] MAVLINK [HEARTBEAT] HEARTBEAT {type : 27, autopilot : 8, base_mode : 4, custom_mode : 0, system_status : 4, mavlink_version : 3}
2025-11-18 17:44:03 [DEBUG] MAVLINK [AHRS] AHRS {omegaIx : 0.0002063301799353212, omegaIy : 5.254844381852308e-07, omegaIz : -0.0007961075752973557, accel_weight : 0.0, renorm_val : 0.0, error_rp : 0.017462626099586487, error_yaw : 0.003215099684894085}
2025-11-18 17:44:03 [DEBUG] MAVLINK [AHRS2] AHRS2 {roll : -0.054239656776189804, pitch : -0.002030676696449518, yaw : 1.931421160697937, altitude : 578.7699584960938, lat : 174481032, lng : 783809910}
2025-11-18 17:44:03 [DEBUG] MAVLINK [ATTITUDE] ATTITUDE {time_boot_ms : 385305, roll : -0.05427446588873863, pitch : -0.003697081468999386, yaw : 1.9342902898788452, rollspeed : 0.00016798230353742838, pitchspeed : 0.0001267035841010511, yawspeed : 0.0003108062082901597}
2025-11-18 17:44:03 [DEBUG] MAVLINK [GLOBAL_POSITION_INT] GLOBAL_POSITION_INT {time_boot_ms : 385305, lat : 174481032, lon : 783809908, alt : 579830, relative_alt : -30, vx : -2, vy : 1, vz : 1, hdg : 11082}
2025-11-18 17:44:03 [DEBUG] MAVLINK [VFR_HUD] VFR_HUD {airspeed : 0.030032537877559662, groundspeed : 0.02539943717420101, heading : 110, throttle : 0, alt : 579.8300170898438, climb : -0.016025662422180176}
2025-11-18 17:44:03 [DEBUG] MAVLINK [SYS_STATUS] SYS_STATUS {onboard_control_sensors_present : 1399913519, onboard_control_sensors_enabled : 1130429487, onboard_control_sensors_health : 1198586895, load : 319, voltage_battery : 11029, current_battery : 1, battery_remaining : 99, drop_rate_comm : 0, errors_comm : 0, errors_count1 : 0, errors_count2 : 0, errors_count3 : 0, errors_count4 : 0}
2025-11-18 17:44:03 [DEBUG] MAVLINK [POWER_STATUS] POWER_STATUS {Vcc : 5271, Vservo : 5023, flags : 5}
2025-11-18 17:44:03 [DEBUG] MAVLINK [MEMINFO] MEMINFO {brkval : 0, freemem : 65535, freemem32 : 563624}
2025-11-18 17:44:03 [DEBUG] MAVLINK [NAV_CONTROLLER_OUTPUT] NAV_CONTROLLER_OUTPUT {nav_roll : -0.0001895562163554132, nav_pitch : 0.00033449340844526887, nav_bearing : 110, target_bearing : 0, wp_dist : 0, alt_error : 0.0, aspd_error : 0.0, xtrack_error : 0.0}
2025-11-18 17:44:03 [DEBUG] MAVLINK [MISSION_CURRENT] MISSION_CURRENT {seq : 0, total : 0, mission_state : 1, mission_mode : 0}
2025-11-18 17:44:03 [DEBUG] MAVLINK [SERVO_OUTPUT_RAW] SERVO_OUTPUT_RAW {time_usec : 385305866, port : 0, servo1_raw : 1000, servo2_raw : 1000, servo3_raw : 1000, servo4_raw : 1000, servo5_raw : 0, servo6_raw : 0, servo7_raw : 0, servo8_raw : 0, servo9_raw : 0, servo10_raw : 0, servo11_raw : 0, servo12_raw : 0, servo13_raw : 0, servo14_raw : 0, servo15_raw : 0, servo16_raw : 0}
2025-11-18 17:44:03 [DEBUG] MAVLINK [RC_CHANNELS] RC_CHANNELS {time_boot_ms : 385305, chancount : 0, chan1_raw : 0, chan2_raw : 0, chan3_raw : 0, chan4_raw : 0, chan5_raw : 0, chan6_raw : 0, chan7_raw : 0, chan8_raw : 0, chan9_raw : 0, chan10_raw : 0, chan11_raw : 0, chan12_raw : 0, chan13_raw : 0, chan14_raw : 0, chan15_raw : 0, chan16_raw : 0, chan17_raw : 0, chan18_raw : 0, rssi : 255}
2025-11-18 17:44:03 [DEBUG] MAVLINK [RAW_IMU] RAW_IMU {time_usec : 385305896, xacc : 10, yacc : 78, zacc : -997, xgyro : 0, ygyro : 0, zgyro : 1, xmag : -111, ymag : -295, zmag : 100, id : 0, temperature : 4480}
2025-11-18 17:44:03 [DEBUG] MAVLINK [SCALED_IMU2] SCALED_IMU2 {time_boot_ms : 385308, xacc : 11, yacc : 75, zacc : -998, xgyro : 1, ygyro : 0, zgyro : 0, xmag : -166, ymag : -375, zmag : 136, temperature : 4856}
2025-11-18 17:44:03 [DEBUG] MAVLINK [SCALED_IMU3] SCALED_IMU3 {time_boot_ms : 385308, xacc : 18, yacc : 66, zacc : -999, xgyro : -1, ygyro : -2, zgyro : 0, xmag : 0, ymag : 0, zmag : 0, temperature : 4779}
2025-11-18 17:44:03 [DEBUG] MAVLINK [SCALED_PRESSURE] SCALED_PRESSURE {time_boot_ms : 385308, press_abs : 949.11279296875, press_diff : 0.0, temperature : 4656, temperature_press_diff : 0}
2025-11-18 17:44:03 [DEBUG] MAVLINK [SCALED_PRESSURE2] SCALED_PRESSURE2 {time_boot_ms : 385308, press_abs : 949.158203125, press_diff : 0.0, temperature : 4393, temperature_press_diff : 0}
2025-11-18 17:44:03 [DEBUG] MAVLINK [GPS_RAW_INT] GPS_RAW_INT {time_usec : 385112000, fix_type : 4, lat : 174481031, lon : 783809910, alt : 574500, eph : 77, epv : 138, vel : 4, cog : 18517, satellites_visible : 17, alt_ellipsoid : 500406, h_acc : 922, v_acc : 1471, vel_acc : 266, hdg_acc : 0, yaw : 0}
2025-11-18 17:44:03 [DEBUG] MAVLINK [SYSTEM_TIME] SYSTEM_TIME {time_unix_usec : 1763468043196050, time_boot_ms : 385308}
2025-11-18 17:44:03 [DEBUG] MAVLINK [WIND] WIND {direction : -180.0, speed : 0.0, speed_z : 0.0}
2025-11-18 17:44:03 [DEBUG] MAVLINK [TERRAIN_REPORT] TERRAIN_REPORT {lat : 174481032, lon : 783809908, spacing : 100, terrain_height : 579.8699340820312, current_height : -0.039947040379047394, pending : 0, loaded : 504}
2025-11-18 17:44:03 [DEBUG] MAVLINK [EKF_STATUS_REPORT] EKF_STATUS_REPORT {flags : 831, velocity_variance : 0.029692526906728745, pos_horiz_variance : 0.0034998534247279167, pos_vert_variance : 0.0019298335537314415, compass_variance : 0.0022947201505303383, terrain_alt_variance : 0.0, airspeed_variance : 0.0}
2025-11-18 17:44:03 [DEBUG] MAVLINK [LOCAL_POSITION_NED] LOCAL_POSITION_NED {time_boot_ms : 385310, x : -0.9859874844551086, y : -1.0920180082321167, z : 0.9602457284927368, vx : -0.020540839061141014, vy : 0.014932483434677124, vz : 0.016058022156357765}
2025-11-18 17:44:03 [DEBUG] MAVLINK [VIBRATION] VIBRATION {time_usec : 385310394, vibration_x : 0.008215063251554966, vibration_y : 0.0071889981627464294, vibration_z : 0.007876385003328323, clipping_0 : 0, clipping_1 : 0, clipping_2 : 0}
2025-11-18 17:44:03 [DEBUG] MAVLINK [BATTERY_STATUS] BATTERY_STATUS {id : 0, battery_function : 0, type : 0, temperature : 32767, voltages : [11029, 65535, 65535, 65535, 65535, 65535, 65535, 65535, 65535, 65535], current_battery : 1, current_consumed : 2, energy_consumed : 0, battery_remaining : 99, time_remaining : 0, charge_state : 1, voltages_ext : [0, 0, 0, 0], mode : 0, fault_bitmask : 0}
2025-11-18 17:44:03 [DEBUG] MAVLINK [MCU_STATUS] MCU_STATUS {id : 0, MCU_temperature : 4548, MCU_voltage : 3286, MCU_voltage_min : 3280, MCU_voltage_max : 3294}
2025-11-18 17:44:03 [DEBUG] MAVLINK [HEARTBEAT] HEARTBEAT {type : 2, autopilot : 3, base_mode : 217, custom_mode : 4, system_status : 5, mavlink_version : 3}
2025-11-18 17:44:03 [DEBUG] MAVLINK [AHRS] AHRS {omegaIx : 0.00020746370137203485, omegaIy : -1.0984115306200692e-06, omegaIz : -0.0007972386083565652, accel_weight : 0.0, renorm_val : 0.0, error_rp : 0.025375433266162872, error_yaw : 0.003457046113908291}
2025-11-18 17:44:03 [DEBUG] MAVLINK [AHRS2] AHRS2 {roll : -0.052979614585638046, pitch : -0.00327890831977129, yaw : 1.9312373399734497, altitude : 579.1900024414062, lat : 174481031, lng : 783809911}
2025-11-18 17:44:03 [DEBUG] MAVLINK [ATTITUDE] ATTITUDE {time_boot_ms : 385555, roll : -0.05428343638777733, pitch : -0.0037359632551670074, yaw : 1.9343481063842773, rollspeed : -1.775939017534256e-05, pitchspeed : -0.000405893282731995, yawspeed : 0.0001542342361062765}
2025-11-18 17:44:03 [DEBUG] MAVLINK [GLOBAL_POSITION_INT] GLOBAL_POSITION_INT {time_boot_ms : 385555, lat : 174481031, lon : 783809908, alt : 579840, relative_alt : -26, vx : -2, vy : 2, vz : 1, hdg : 11082}
2025-11-18 17:44:03 [DEBUG] MAVLINK [VFR_HUD] VFR_HUD {airspeed : 0.034000594168901443, groundspeed : 0.031160429120063782, heading : 110, throttle : 0, alt : 579.8399658203125, climb : -0.013603978790342808}
2025-11-18 17:44:03 [DEBUG] MAVLINK [SYS_STATUS] SYS_STATUS {onboard_control_sensors_present : 1399913519, onboard_control_sensors_enabled : 1130429487, onboard_control_sensors_health : 1198586895, load : 346, voltage_battery : 11027, current_battery : 2, battery_remaining : 99, drop_rate_comm : 0, errors_comm : 0, errors_count1 : 0, errors_count2 : 0, errors_count3 : 0, errors_count4 : 0}
2025-11-18 17:44:03 [DEBUG] MAVLINK [POWER_STATUS] POWER_STATUS {Vcc : 5274, Vservo : 5026, flags : 5}
2025-11-18 17:44:03 [DEBUG] MAVLINK [MEMINFO] MEMINFO {brkval : 0, freemem : 65535, freemem32 : 563624}
2025-11-18 17:44:03 [DEBUG] MAVLINK [NAV_CONTROLLER_OUTPUT] NAV_CONTROLLER_OUTPUT {nav_roll : -0.0001895561144920066, nav_pitch : 0.00033449329202994704, nav_bearing : 110, target_bearing : 0, wp_dist : 0, alt_error : 0.0, aspd_error : 0.0, xtrack_error : 0.0}
2025-11-18 17:44:03 [DEBUG] MAVLINK [MISSION_CURRENT] MISSION_CURRENT {seq : 0, total : 0, mission_state : 1, mission_mode : 0}
2025-11-18 17:44:03 [DEBUG] MAVLINK [SERVO_OUTPUT_RAW] SERVO_OUTPUT_RAW {time_usec : 385555944, port : 0, servo1_raw : 1000, servo2_raw : 1000, servo3_raw : 1000, servo4_raw : 1000, servo5_raw : 0, servo6_raw : 0, servo7_raw : 0, servo8_raw : 0, servo9_raw : 0, servo10_raw : 0, servo11_raw : 0, servo12_raw : 0, servo13_raw : 0, servo14_raw : 0, servo15_raw : 0, servo16_raw : 0}
2025-11-18 17:44:03 [DEBUG] MAVLINK [RC_CHANNELS] RC_CHANNELS {time_boot_ms : 385555, chancount : 0, chan1_raw : 0, chan2_raw : 0, chan3_raw : 0, chan4_raw : 0, chan5_raw : 0, chan6_raw : 0, chan7_raw : 0, chan8_raw : 0, chan9_raw : 0, chan10_raw : 0, chan11_raw : 0, chan12_raw : 0, chan13_raw : 0, chan14_raw : 0, chan15_raw : 0, chan16_raw : 0, chan17_raw : 0, chan18_raw : 0, rssi : 255}
2025-11-18 17:44:03 [DEBUG] MAVLINK [RAW_IMU] RAW_IMU {time_usec : 385558062, xacc : 10, yacc : 79, zacc : -998, xgyro : 0, ygyro : 0, zgyro : 0, xmag : -110, ymag : -295, zmag : 99, id : 0, temperature : 4480}
2025-11-18 17:44:03 [DEBUG] MAVLINK [SCALED_IMU2] SCALED_IMU2 {time_boot_ms : 385558, xacc : 15, yacc : 77, zacc : -1000, xgyro : 2, ygyro : 0, zgyro : -1, xmag : -151, ymag : -372, zmag : 158, temperature : 4856}
2025-11-18 17:44:03 [DEBUG] MAVLINK [SCALED_IMU3] SCALED_IMU3 {time_boot_ms : 385558, xacc : 17, yacc : 68, zacc : -997, xgyro : -4, ygyro : -3, zgyro : -1, xmag : 0, ymag : 0, zmag : 0, temperature : 4779}
2025-11-18 17:44:03 [DEBUG] MAVLINK [SCALED_PRESSURE] SCALED_PRESSURE {time_boot_ms : 385558, press_abs : 949.0653686523438, press_diff : 0.0, temperature : 4656, temperature_press_diff : 0}
2025-11-18 17:44:03 [DEBUG] MAVLINK [SCALED_PRESSURE2] SCALED_PRESSURE2 {time_boot_ms : 385558, press_abs : 949.1818237304688, press_diff : 0.0, temperature : 4393, temperature_press_diff : 0}
2025-11-18 17:44:03 [DEBUG] MAVLINK [GPS_RAW_INT] GPS_RAW_INT {time_usec : 385512000, fix_type : 4, lat : 174481031, lon : 783809911, alt : 574560, eph : 77, epv : 138, vel : 1, cog : 18517, satellites_visible : 17, alt_ellipsoid : 500465, h_acc : 919, v_acc : 1466, vel_acc : 296, hdg_acc : 0, yaw : 0}
2025-11-18 17:44:03 [DEBUG] MAVLINK [SYSTEM_TIME] SYSTEM_TIME {time_unix_usec : 1763468043446078, time_boot_ms : 385558}
2025-11-18 17:44:03 [DEBUG] MAVLINK [WIND] WIND {direction : -180.0, speed : 0.0, speed_z : 0.0}
2025-11-18 17:44:03 [DEBUG] MAVLINK [TERRAIN_REPORT] TERRAIN_REPORT {lat : 174481031, lon : 783809908, spacing : 100, terrain_height : 579.869873046875, current_height : -0.02988600730895996, pending : 0, loaded : 504}
2025-11-18 17:44:03 [DEBUG] MAVLINK [EKF_STATUS_REPORT] EKF_STATUS_REPORT {flags : 831, velocity_variance : 0.009731491096317768, pos_horiz_variance : 0.0037126941606402397, pos_vert_variance : 0.013429997488856316, compass_variance : 0.006561554502695799, terrain_alt_variance : 0.0, airspeed_variance : 0.0}
2025-11-18 17:44:03 [DEBUG] MAVLINK [LOCAL_POSITION_NED] LOCAL_POSITION_NED {time_boot_ms : 385560, x : -0.992320716381073, y : -1.0843151807785034, z : 0.9570309519767761, vx : -0.02334500290453434, vy : 0.020690349861979485, vz : 0.013609315268695354}
2025-11-18 17:44:03 [DEBUG] MAVLINK [VIBRATION] VIBRATION {time_usec : 385560485, vibration_x : 0.0077328160405159, vibration_y : 0.0076583269983530045, vibration_z : 0.013085618615150452, clipping_0 : 0, clipping_1 : 0, clipping_2 : 0}
2025-11-18 17:44:03 [DEBUG] MAVLINK [BATTERY_STATUS] BATTERY_STATUS {id : 0, battery_function : 0, type : 0, temperature : 32767, voltages : [11027, 65535, 65535, 65535, 65535, 65535, 65535, 65535, 65535, 65535], current_battery : 2, current_consumed : 2, energy_consumed : 0, battery_remaining : 99, time_remaining : 0, charge_state : 1, voltages_ext : [0, 0, 0, 0], mode : 0, fault_bitmask : 0}
2025-11-18 17:44:03 [DEBUG] MAVLINK [MCU_STATUS] MCU_STATUS {id : 0, MCU_temperature : 4550, MCU_voltage : 3286, MCU_voltage_min : 3277, MCU_voltage_max : 3299}
2025-11-18 17:44:03 [DEBUG] MAVLINK [HEARTBEAT] HEARTBEAT {type : 6, autopilot : 8, base_mode : 192, custom_mode : 0, system_status : 4, mavlink_version : 3}
2025-11-18 17:44:03 [DEBUG] MAVLINK [AHRS] AHRS {omegaIx : 0.000206632525078021, omegaIy : -2.0300449250498787e-06, omegaIz : -0.0007981123053468764, accel_weight : 0.0, renorm_val : 0.0, error_rp : 0.024147607386112213, error_yaw : 0.0024887993931770325}
2025-11-18 17:44:03 [DEBUG] MAVLINK [AHRS2] AHRS2 {roll : -0.05345287546515465, pitch : -0.0026292041875422, yaw : 1.9311035871505737, altitude : 579.1300048828125, lat : 174481031, lng : 783809912}
2025-11-18 17:44:03 [DEBUG] MAVLINK [ATTITUDE] ATTITUDE {time_boot_ms : 385805, roll : -0.05430008843541145, pitch : -0.0037496164441108704, yaw : 1.9343774318695068, rollspeed : -4.590094613377005e-05, pitchspeed : 0.00010719655256252736, yawspeed : 0.00035970722092315555}
2025-11-18 17:44:03 [DEBUG] MAVLINK [GLOBAL_POSITION_INT] GLOBAL_POSITION_INT {time_boot_ms : 385805, lat : 174481031, lon : 783809909, alt : 579840, relative_alt : -22, vx : -2, vy : 2, vz : 1, hdg : 11083}
2025-11-18 17:44:03 [DEBUG] MAVLINK [VFR_HUD] VFR_HUD {airspeed : 0.03595627099275589, groundspeed : 0.0340622216463089, heading : 110, throttle : 0, alt : 579.8399658203125, climb : -0.011515995487570763}
2025-11-18 17:44:03 [DEBUG] MAVLINK [SYS_STATUS] SYS_STATUS {onboard_control_sensors_present : 1399913519, onboard_control_sensors_enabled : 1130429487, onboard_control_sensors_health : 1198586895, load : 327, voltage_battery : 11029, current_battery : 1, battery_remaining : 99, drop_rate_comm : 0, errors_comm : 0, errors_count1 : 0, errors_count2 : 0, errors_count3 : 0, errors_count4 : 0}
2025-11-18 17:44:03 [DEBUG] MAVLINK [POWER_STATUS] POWER_STATUS {Vcc : 5288, Vservo : 5011, flags : 5}
2025-11-18 17:44:03 [DEBUG] MAVLINK [MEMINFO] MEMINFO {brkval : 0, freemem : 65535, freemem32 : 563624}
2025-11-18 17:44:03 [DEBUG] MAVLINK [NAV_CONTROLLER_OUTPUT] NAV_CONTROLLER_OUTPUT {nav_roll : -0.00018955620180349797, nav_pitch : 0.00033449340844526887, nav_bearing : 110, target_bearing : 0, wp_dist : 0, alt_error : 0.0, aspd_error : 0.0, xtrack_error : 0.0}
2025-11-18 17:44:03 [DEBUG] MAVLINK [MISSION_CURRENT] MISSION_CURRENT {seq : 0, total : 0, mission_state : 1, mission_mode : 0}
2025-11-18 17:44:03 [DEBUG] MAVLINK [SERVO_OUTPUT_RAW] SERVO_OUTPUT_RAW {time_usec : 385805920, port : 0, servo1_raw : 1000, servo2_raw : 1000, servo3_raw : 1000, servo4_raw : 1000, servo5_raw : 0, servo6_raw : 0, servo7_raw : 0, servo8_raw : 0, servo9_raw : 0, servo10_raw : 0, servo11_raw : 0, servo12_raw : 0, servo13_raw : 0, servo14_raw : 0, servo15_raw : 0, servo16_raw : 0}
2025-11-18 17:44:03 [DEBUG] MAVLINK [RC_CHANNELS] RC_CHANNELS {time_boot_ms : 385805, chancount : 0, chan1_raw : 0, chan2_raw : 0, chan3_raw : 0, chan4_raw : 0, chan5_raw : 0, chan6_raw : 0, chan7_raw : 0, chan8_raw : 0, chan9_raw : 0, chan10_raw : 0, chan11_raw : 0, chan12_raw : 0, chan13_raw : 0, chan14_raw : 0, chan15_raw : 0, chan16_raw : 0, chan17_raw : 0, chan18_raw : 0, rssi : 255}
2025-11-18 17:44:03 [DEBUG] MAVLINK [RAW_IMU] RAW_IMU {time_usec : 385808005, xacc : 10, yacc : 78, zacc : -997, xgyro : 0, ygyro : 0, zgyro : 1, xmag : -111, ymag : -294, zmag : 99, id : 0, temperature : 4480}
2025-11-18 17:44:03 [DEBUG] MAVLINK [SCALED_IMU2] SCALED_IMU2 {time_boot_ms : 385808, xacc : 13, yacc : 75, zacc : -997, xgyro : 1, ygyro : -1, zgyro : 0, xmag : -156, ymag : -379, zmag : 150, temperature : 4856}
2025-11-18 17:44:03 [DEBUG] MAVLINK [SCALED_IMU3] SCALED_IMU3 {time_boot_ms : 385808, xacc : 20, yacc : 68, zacc : -999, xgyro : 0, ygyro : 0, zgyro : -1, xmag : 0, ymag : 0, zmag : 0, temperature : 4778}
2025-11-18 17:44:03 [DEBUG] MAVLINK [SCALED_PRESSURE] SCALED_PRESSURE {time_boot_ms : 385808, press_abs : 949.0714721679688, press_diff : 0.0, temperature : 4656, temperature_press_diff : 0}
2025-11-18 17:44:03 [DEBUG] MAVLINK [SCALED_PRESSURE2] SCALED_PRESSURE2 {time_boot_ms : 385808, press_abs : 949.1731567382812, press_diff : 0.0, temperature : 4393, temperature_press_diff : 0}
2025-11-18 17:44:03 [DEBUG] MAVLINK [GPS_RAW_INT] GPS_RAW_INT {time_usec : 385712000, fix_type : 4, lat : 174481031, lon : 783809912, alt : 574590, eph : 77, epv : 138, vel : 5, cog : 18517, satellites_visible : 17, alt_ellipsoid : 500495, h_acc : 919, v_acc : 1465, vel_acc : 296, hdg_acc : 0, yaw : 0}
2025-11-18 17:44:03 [DEBUG] MAVLINK [SYSTEM_TIME] SYSTEM_TIME {time_unix_usec : 1763468043695975, time_boot_ms : 385808}
2025-11-18 17:44:03 [DEBUG] MAVLINK [WIND] WIND {direction : -180.0, speed : 0.0, speed_z : 0.0}
2025-11-18 17:44:03 [DEBUG] MAVLINK [TERRAIN_REPORT] TERRAIN_REPORT {lat : 174481031, lon : 783809909, spacing : 100, terrain_height : 579.8701171875, current_height : -0.03013014793395996, pending : 0, loaded : 504}
2025-11-18 17:44:03 [DEBUG] MAVLINK [EKF_STATUS_REPORT] EKF_STATUS_REPORT {flags : 831, velocity_variance : 0.050746165215969086, pos_horiz_variance : 0.004879160318523645, pos_vert_variance : 0.00032995431683957577, compass_variance : 0.001431363052688539, terrain_alt_variance : 0.0, airspeed_variance : 0.0}
2025-11-18 17:44:03 [DEBUG] MAVLINK [LOCAL_POSITION_NED] LOCAL_POSITION_NED {time_boot_ms : 385808, x : -0.997418999671936, y : -1.0765165090560913, z : 0.952093780040741, vx : -0.023814473301172256, vy : 0.024416496977210045, vz : 0.011531859636306763}
2025-11-18 17:44:03 [DEBUG] MAVLINK [VIBRATION] VIBRATION {time_usec : 385810376, vibration_x : 0.008207877166569233, vibration_y : 0.0071359071880578995, vibration_z : 0.009561905637383461, clipping_0 : 0, clipping_1 : 0, clipping_2 : 0}
2025-11-18 17:44:03 [DEBUG] MAVLINK [BATTERY_STATUS] BATTERY_STATUS {id : 0, battery_function : 0, type : 0, temperature : 32767, voltages : [11029, 65535, 65535, 65535, 65535, 65535, 65535, 65535, 65535, 65535], current_battery : 1, current_consumed : 2, energy_consumed : 0, battery_remaining : 99, time_remaining : 0, charge_state : 1, voltages_ext : [0, 0, 0, 0], mode : 0, fault_bitmask : 0}
2025-11-18 17:44:03 [DEBUG] MAVLINK [MCU_STATUS] MCU_STATUS {id : 0, MCU_temperature : 4550, MCU_voltage : 3286, MCU_voltage_min : 3280, MCU_voltage_max : 3291}
2025-11-18 17:44:04 [DEBUG] MAVLINK [AHRS] AHRS {omegaIx : 0.0002064171712845564, omegaIy : -8.445243224741716e-07, omegaIz : -0.0007996033527888358, accel_weight : 0.0, renorm_val : 0.0, error_rp : 0.03119933418929577, error_yaw : 0.002851655939593911}
2025-11-18 17:44:04 [DEBUG] MAVLINK [AHRS2] AHRS2 {roll : -0.05314040929079056, pitch : -0.0014850262086838484, yaw : 1.9309145212173462, altitude : 578.6900024414062, lat : 174481031, lng : 783809911}
2025-11-18 17:44:04 [DEBUG] MAVLINK [ATTITUDE] ATTITUDE {time_boot_ms : 386055, roll : -0.054327014833688736, pitch : -0.0037544146180152893, yaw : 1.9344216585159302, rollspeed : 1.5739293303340673e-05, pitchspeed : 2.9224838726804592e-05, yawspeed : 0.0003115129075013101}
2025-11-18 17:44:04 [DEBUG] MAVLINK [GLOBAL_POSITION_INT] GLOBAL_POSITION_INT {time_boot_ms : 386055, lat : 174481031, lon : 783809910, alt : 579860, relative_alt : -8, vx : -2, vy : 2, vz : 0, hdg : 11083}
2025-11-18 17:44:04 [DEBUG] MAVLINK [VFR_HUD] VFR_HUD {airspeed : 0.0334247387945652, groundspeed : 0.03277800604701042, heading : 110, throttle : 0, alt : 579.8599853515625, climb : -0.006543369498103857}
2025-11-18 17:44:04 [DEBUG] MAVLINK [SYS_STATUS] SYS_STATUS {onboard_control_sensors_present : 1399913519, onboard_control_sensors_enabled : 1130429487, onboard_control_sensors_health : 1198586895, load : 318, voltage_battery : 11031, current_battery : 2, battery_remaining : 99, drop_rate_comm : 0, errors_comm : 0, errors_count1 : 0, errors_count2 : 0, errors_count3 : 0, errors_count4 : 0}
2025-11-18 17:44:04 [DEBUG] MAVLINK [POWER_STATUS] POWER_STATUS {Vcc : 5270, Vservo : 5035, flags : 5}
2025-11-18 17:44:04 [DEBUG] MAVLINK [MEMINFO] MEMINFO {brkval : 0, freemem : 65535, freemem32 : 563624}
2025-11-18 17:44:04 [DEBUG] MAVLINK [NAV_CONTROLLER_OUTPUT] NAV_CONTROLLER_OUTPUT {nav_roll : -0.0001895561144920066, nav_pitch : 0.0003344933211337775, nav_bearing : 110, target_bearing : 0, wp_dist : 0, alt_error : 0.0, aspd_error : 0.0, xtrack_error : 0.0}
2025-11-18 17:44:04 [DEBUG] MAVLINK [MISSION_CURRENT] MISSION_CURRENT {seq : 0, total : 0, mission_state : 1, mission_mode : 0}
2025-11-18 17:44:04 [DEBUG] MAVLINK [SERVO_OUTPUT_RAW] SERVO_OUTPUT_RAW {time_usec : 386055862, port : 0, servo1_raw : 1000, servo2_raw : 1000, servo3_raw : 1000, servo4_raw : 1000, servo5_raw : 0, servo6_raw : 0, servo7_raw : 0, servo8_raw : 0, servo9_raw : 0, servo10_raw : 0, servo11_raw : 0, servo12_raw : 0, servo13_raw : 0, servo14_raw : 0, servo15_raw : 0, servo16_raw : 0}
2025-11-18 17:44:04 [DEBUG] MAVLINK [RC_CHANNELS] RC_CHANNELS {time_boot_ms : 386055, chancount : 0, chan1_raw : 0, chan2_raw : 0, chan3_raw : 0, chan4_raw : 0, chan5_raw : 0, chan6_raw : 0, chan7_raw : 0, chan8_raw : 0, chan9_raw : 0, chan10_raw : 0, chan11_raw : 0, chan12_raw : 0, chan13_raw : 0, chan14_raw : 0, chan15_raw : 0, chan16_raw : 0, chan17_raw : 0, chan18_raw : 0, rssi : 255}
2025-11-18 17:44:04 [DEBUG] MAVLINK [RAW_IMU] RAW_IMU {time_usec : 386055892, xacc : 10, yacc : 79, zacc : -997, xgyro : 0, ygyro : 0, zgyro : 1, xmag : -111, ymag : -295, zmag : 100, id : 0, temperature : 4480}
2025-11-18 17:44:04 [DEBUG] MAVLINK [SCALED_IMU2] SCALED_IMU2 {time_boot_ms : 386055, xacc : 13, yacc : 75, zacc : -997, xgyro : 3, ygyro : -1, zgyro : 0, xmag : -169, ymag : -378, zmag : 153, temperature : 4856}
2025-11-18 17:44:04 [DEBUG] MAVLINK [SCALED_IMU3] SCALED_IMU3 {time_boot_ms : 386055, xacc : 18, yacc : 69, zacc : -1001, xgyro : -1, ygyro : 0, zgyro : -3, xmag : 0, ymag : 0, zmag : 0, temperature : 4778}
2025-11-18 17:44:04 [DEBUG] MAVLINK [SCALED_PRESSURE] SCALED_PRESSURE {time_boot_ms : 386055, press_abs : 949.121826171875, press_diff : 0.0, temperature : 4656, temperature_press_diff : 0}
2025-11-18 17:44:04 [DEBUG] MAVLINK [SCALED_PRESSURE2] SCALED_PRESSURE2 {time_boot_ms : 386058, press_abs : 949.1688232421875, press_diff : 0.0, temperature : 4393, temperature_press_diff : 0}
2025-11-18 17:44:04 [DEBUG] MAVLINK [GPS_RAW_INT] GPS_RAW_INT {time_usec : 385912000, fix_type : 4, lat : 174481031, lon : 783809912, alt : 574620, eph : 77, epv : 138, vel : 4, cog : 18517, satellites_visible : 17, alt_ellipsoid : 500526, h_acc : 918, v_acc : 1463, vel_acc : 270, hdg_acc : 0, yaw : 0}
2025-11-18 17:44:04 [DEBUG] Altitude: -0.01m
2025-11-18 17:44:04 [DEBUG] MAVLINK [SYSTEM_TIME] SYSTEM_TIME {time_unix_usec : 1763468043945930, time_boot_ms : 386058}
2025-11-18 17:44:04 [DEBUG] MAVLINK [WIND] WIND {direction : -180.0, speed : 0.0, speed_z : 0.0}
2025-11-18 17:44:04 [DEBUG] MAVLINK [TERRAIN_REPORT] TERRAIN_REPORT {lat : 174481031, lon : 783809910, spacing : 100, terrain_height : 579.8702392578125, current_height : -0.010252218693494797, pending : 0, loaded : 504}
2025-11-18 17:44:04 [DEBUG] MAVLINK [EKF_STATUS_REPORT] EKF_STATUS_REPORT {flags : 831, velocity_variance : 0.03264402970671654, pos_horiz_variance : 0.0030036931857466698, pos_vert_variance : 0.012360380962491035, compass_variance : 0.0035789390094578266, terrain_alt_variance : 0.0, airspeed_variance : 0.0}
2025-11-18 17:44:04 [DEBUG] MAVLINK [LOCAL_POSITION_NED] LOCAL_POSITION_NED {time_boot_ms : 386058, x : -1.0007646083831787, y : -1.070319652557373, z : 0.9386977553367615, vx : -0.022465985268354416, vy : 0.02388307824730873, vz : 0.006551248952746391}
2025-11-18 17:44:04 [DEBUG] MAVLINK [VIBRATION] VIBRATION {time_usec : 386058237, vibration_x : 0.007647763472050428, vibration_y : 0.0073603796772658825, vibration_z : 0.008944236673414707, clipping_0 : 0, clipping_1 : 0, clipping_2 : 0}
2025-11-18 17:44:04 [DEBUG] MAVLINK [BATTERY_STATUS] BATTERY_STATUS {id : 0, battery_function : 0, type : 0, temperature : 32767, voltages : [11031, 65535, 65535, 65535, 65535, 65535, 65535, 65535, 65535, 65535], current_battery : 2, current_consumed : 2, energy_consumed : 0, battery_remaining : 99, time_remaining : 0, charge_state : 1, voltages_ext : [0, 0, 0, 0], mode : 0, fault_bitmask : 0}
2025-11-18 17:44:04 [DEBUG] MAVLINK [MCU_STATUS] MCU_STATUS {id : 0, MCU_temperature : 4552, MCU_voltage : 3286, MCU_voltage_min : 3280, MCU_voltage_max : 3293}
2025-11-18 17:44:04 [DEBUG] MAVLINK [HEARTBEAT] HEARTBEAT {type : 27, autopilot : 8, base_mode : 4, custom_mode : 0, system_status : 4, mavlink_version : 3}
2025-11-18 17:44:04 [DEBUG] MAVLINK [AHRS] AHRS {omegaIx : 0.00020612720982171595, omegaIy : -6.680412525383872e-07, omegaIz : -0.0008009001612663269, accel_weight : 0.0, renorm_val : 0.0, error_rp : 0.029006095603108406, error_yaw : 0.0032606462482362986}
2025-11-18 17:44:04 [DEBUG] MAVLINK [AHRS2] AHRS2 {roll : -0.052817054092884064, pitch : -0.0010842697229236364, yaw : 1.9307109117507935, altitude : 578.9099731445312, lat : 174481031, lng : 783809911}
2025-11-18 17:44:04 [DEBUG] MAVLINK [ATTITUDE] ATTITUDE {time_boot_ms : 386305, roll : -0.05434524640440941, pitch : -0.0037593459710478783, yaw : 1.9344500303268433, rollspeed : -0.00026061281096190214, pitchspeed : -0.00014880111848469824, yawspeed : 0.0002877148799598217}
2025-11-18 17:44:04 [DEBUG] MAVLINK [GLOBAL_POSITION_INT] GLOBAL_POSITION_INT {time_boot_ms : 386305, lat : 174481030, lon : 783809910, alt : 579870, relative_alt : 3, vx : -2, vy : 1, vz : 0, hdg : 11083}
2025-11-18 17:44:04 [DEBUG] MAVLINK [VFR_HUD] VFR_HUD {airspeed : 0.027410075068473816, groundspeed : 0.027350246906280518, heading : 110, throttle : 0, alt : 579.8699951171875, climb : -0.0018100397428497672}
2025-11-18 17:44:04 [DEBUG] MAVLINK [SYS_STATUS] SYS_STATUS {onboard_control_sensors_present : 1399913519, onboard_control_sensors_enabled : 1130429487, onboard_control_sensors_health : 1198586895, load : 319, voltage_battery : 11023, current_battery : 2, battery_remaining : 99, drop_rate_comm : 0, errors_comm : 0, errors_count1 : 0, errors_count2 : 0, errors_count3 : 0, errors_count4 : 0}
2025-11-18 17:44:04 [DEBUG] MAVLINK [POWER_STATUS] POWER_STATUS {Vcc : 5270, Vservo : 5040, flags : 5}
2025-11-18 17:44:04 [DEBUG] MAVLINK [MEMINFO] MEMINFO {brkval : 0, freemem : 65535, freemem32 : 563624}
2025-11-18 17:44:04 [DEBUG] MAVLINK [NAV_CONTROLLER_OUTPUT] NAV_CONTROLLER_OUTPUT {nav_roll : -0.00018955615814775229, nav_pitch : 0.0003344934375490993, nav_bearing : 110, target_bearing : 0, wp_dist : 0, alt_error : 0.0, aspd_error : 0.0, xtrack_error : 0.0}
2025-11-18 17:44:04 [DEBUG] MAVLINK [MISSION_CURRENT] MISSION_CURRENT {seq : 0, total : 0, mission_state : 1, mission_mode : 0}
2025-11-18 17:44:04 [DEBUG] MAVLINK [SERVO_OUTPUT_RAW] SERVO_OUTPUT_RAW {time_usec : 386305900, port : 0, servo1_raw : 1062, servo2_raw : 1062, servo3_raw : 1062, servo4_raw : 1062, servo5_raw : 0, servo6_raw : 0, servo7_raw : 0, servo8_raw : 0, servo9_raw : 0, servo10_raw : 0, servo11_raw : 0, servo12_raw : 0, servo13_raw : 0, servo14_raw : 0, servo15_raw : 0, servo16_raw : 0}
2025-11-18 17:44:04 [DEBUG] MAVLINK [RC_CHANNELS] RC_CHANNELS {time_boot_ms : 386305, chancount : 0, chan1_raw : 0, chan2_raw : 0, chan3_raw : 0, chan4_raw : 0, chan5_raw : 0, chan6_raw : 0, chan7_raw : 0, chan8_raw : 0, chan9_raw : 0, chan10_raw : 0, chan11_raw : 0, chan12_raw : 0, chan13_raw : 0, chan14_raw : 0, chan15_raw : 0, chan16_raw : 0, chan17_raw : 0, chan18_raw : 0, rssi : 255}
2025-11-18 17:44:04 [DEBUG] MAVLINK [RAW_IMU] RAW_IMU {time_usec : 386305936, xacc : 10, yacc : 78, zacc : -998, xgyro : 0, ygyro : 0, zgyro : 1, xmag : -111, ymag : -294, zmag : 99, id : 0, temperature : 4480}
2025-11-18 17:44:04 [DEBUG] MAVLINK [SCALED_IMU2] SCALED_IMU2 {time_boot_ms : 386305, xacc : 10, yacc : 76, zacc : -996, xgyro : 1, ygyro : 0, zgyro : -2, xmag : -152, ymag : -373, zmag : 158, temperature : 4855}
2025-11-18 17:44:04 [DEBUG] MAVLINK [SCALED_IMU3] SCALED_IMU3 {time_boot_ms : 386305, xacc : 19, yacc : 68, zacc : -998, xgyro : -2, ygyro : 1, zgyro : -2, xmag : 0, ymag : 0, zmag : 0, temperature : 4780}
2025-11-18 17:44:04 [DEBUG] MAVLINK [SCALED_PRESSURE] SCALED_PRESSURE {time_boot_ms : 386308, press_abs : 949.096435546875, press_diff : 0.0, temperature : 4656, temperature_press_diff : 0}
2025-11-18 17:44:04 [DEBUG] MAVLINK [SCALED_PRESSURE2] SCALED_PRESSURE2 {time_boot_ms : 386308, press_abs : 949.1652221679688, press_diff : 0.0, temperature : 4394, temperature_press_diff : 0}
2025-11-18 17:44:04 [DEBUG] MAVLINK [GPS_RAW_INT] GPS_RAW_INT {time_usec : 386112000, fix_type : 4, lat : 174481031, lon : 783809911, alt : 574640, eph : 77, epv : 138, vel : 2, cog : 18517, satellites_visible : 17, alt_ellipsoid : 500546, h_acc : 916, v_acc : 1461, vel_acc : 290, hdg_acc : 0, yaw : 0}
2025-11-18 17:44:04 [DEBUG] MAVLINK [SYSTEM_TIME] SYSTEM_TIME {time_unix_usec : 1763468044196010, time_boot_ms : 386308}
2025-11-18 17:44:04 [DEBUG] MAVLINK [WIND] WIND {direction : -180.0, speed : 0.0, speed_z : 0.0}
2025-11-18 17:44:04 [DEBUG] MAVLINK [TERRAIN_REPORT] TERRAIN_REPORT {lat : 174481030, lon : 783809910, spacing : 100, terrain_height : 579.8701782226562, current_height : -0.00019118376076221466, pending : 0, loaded : 504}
2025-11-18 17:44:04 [DEBUG] MAVLINK [EKF_STATUS_REPORT] EKF_STATUS_REPORT {flags : 831, velocity_variance : 0.027810774743556976, pos_horiz_variance : 0.00249797897413373, pos_vert_variance : 0.00719726737588644, compass_variance : 0.0036076975520700216, terrain_alt_variance : 0.0, airspeed_variance : 0.0}
2025-11-18 17:44:04 [DEBUG] MAVLINK [LOCAL_POSITION_NED] LOCAL_POSITION_NED {time_boot_ms : 386308, x : -1.0033456087112427, y : -1.0708807706832886, z : 0.9264201521873474, vx : -0.021443244069814682, vy : 0.01697123982012272, vz : 0.0017891190946102142}
2025-11-18 17:44:04 [DEBUG] MAVLINK [VIBRATION] VIBRATION {time_usec : 386308317, vibration_x : 0.009668515995144844, vibration_y : 0.011973110027611256, vibration_z : 0.00936016347259283, clipping_0 : 0, clipping_1 : 0, clipping_2 : 0}
2025-11-18 17:44:04 [DEBUG] MAVLINK [BATTERY_STATUS] BATTERY_STATUS {id : 0, battery_function : 0, type : 0, temperature : 32767, voltages : [11023, 65535, 65535, 65535, 65535, 65535, 65535, 65535, 65535, 65535], current_battery : 2, current_consumed : 2, energy_consumed : 0, battery_remaining : 99, time_remaining : 0, charge_state : 1, voltages_ext : [0, 0, 0, 0], mode : 0, fault_bitmask : 0}
2025-11-18 17:44:04 [DEBUG] MAVLINK [MCU_STATUS] MCU_STATUS {id : 0, MCU_temperature : 4552, MCU_voltage : 3286, MCU_voltage_min : 3279, MCU_voltage_max : 3294}
2025-11-18 17:44:04 [DEBUG] MAVLINK [HEARTBEAT] HEARTBEAT {type : 2, autopilot : 3, base_mode : 217, custom_mode : 4, system_status : 5, mavlink_version : 3}
2025-11-18 17:44:04 [DEBUG] MAVLINK [AHRS] AHRS {omegaIx : 0.0002065050066448748, omegaIy : -7.205560450529447e-07, omegaIz : -0.0008043973939493299, accel_weight : 0.0, renorm_val : 0.0, error_rp : 0.025025498121976852, error_yaw : 0.008789618499577045}
2025-11-18 17:44:04 [DEBUG] MAVLINK [AHRS2] AHRS2 {roll : -0.05318940058350563, pitch : -0.0014168866910040379, yaw : 1.9300215244293213, altitude : 578.9599609375, lat : 174481030, lng : 783809911}
2025-11-18 17:44:04 [DEBUG] MAVLINK [ATTITUDE] ATTITUDE {time_boot_ms : 386555, roll : -0.05445270612835884, pitch : -0.0037321271374821663, yaw : 1.9342713356018066, rollspeed : 0.0013647677842527628, pitchspeed : 0.001651313970796764, yawspeed : -0.018324334174394608}
2025-11-18 17:44:04 [DEBUG] MAVLINK [GLOBAL_POSITION_INT] GLOBAL_POSITION_INT {time_boot_ms : 386555, lat : 174481030, lon : 783809910, alt : 579870, relative_alt : 6, vx : -1, vy : 1, vz : 0, hdg : 11082}
2025-11-18 17:44:04 [DEBUG] MAVLINK [VFR_HUD] VFR_HUD {airspeed : 0.02285662665963173, groundspeed : 0.022822219878435135, heading : 110, throttle : 0, alt : 579.8699951171875, climb : -0.0012536293361335993}
2025-11-18 17:44:04 [DEBUG] MAVLINK [SYS_STATUS] SYS_STATUS {onboard_control_sensors_present : 1399913519, onboard_control_sensors_enabled : 1130429487, onboard_control_sensors_health : 1198586895, load : 348, voltage_battery : 10969, current_battery : 1, battery_remaining : 99, drop_rate_comm : 0, errors_comm : 0, errors_count1 : 0, errors_count2 : 0, errors_count3 : 0, errors_count4 : 0}
2025-11-18 17:44:04 [DEBUG] MAVLINK [POWER_STATUS] POWER_STATUS {Vcc : 5256, Vservo : 5030, flags : 5}
2025-11-18 17:44:04 [DEBUG] MAVLINK [MEMINFO] MEMINFO {brkval : 0, freemem : 65535, freemem32 : 572544}
2025-11-18 17:44:04 [DEBUG] MAVLINK [NAV_CONTROLLER_OUTPUT] NAV_CONTROLLER_OUTPUT {nav_roll : -0.00018955628911498934, nav_pitch : 0.0003344934666529298, nav_bearing : 110, target_bearing : 0, wp_dist : 0, alt_error : 0.0, aspd_error : 0.0, xtrack_error : 0.0}
2025-11-18 17:44:04 [DEBUG] MAVLINK [MISSION_CURRENT] MISSION_CURRENT {seq : 0, total : 0, mission_state : 1, mission_mode : 0}
2025-11-18 17:44:04 [DEBUG] MAVLINK [SERVO_OUTPUT_RAW] SERVO_OUTPUT_RAW {time_usec : 386558070, port : 0, servo1_raw : 1141, servo2_raw : 1141, servo3_raw : 1141, servo4_raw : 1141, servo5_raw : 0, servo6_raw : 0, servo7_raw : 0, servo8_raw : 0, servo9_raw : 0, servo10_raw : 0, servo11_raw : 0, servo12_raw : 0, servo13_raw : 0, servo14_raw : 0, servo15_raw : 0, servo16_raw : 0}
