2025-11-18 17:46:06 [INFO] Logger initialized.
2025-11-18 17:46:06 [INFO] Log file: logs/drone_log_2025-11-18_17-46-06.log
2025-11-18 17:46:12 [INFO] Connected to FC on /dev/ttyACM0@115200
2025-11-18 17:46:12 [INFO] Full MAVLink telemetry logging enabled.
2025-11-18 17:46:12 [INFO] Starting square mission...
2025-11-18 17:46:12 [INFO] Home (A) saved before takeoff: lat=17.4481224, lon=78.3810041
2025-11-18 17:46:12 [INFO] Checking pre-arm conditions...
2025-11-18 17:46:12 [INFO] Saved HOME: lat=17.4481224, lon=78.3810041, alt=-0.019
2025-11-18 17:46:12 [INFO] Arming motors...
2025-11-18 17:46:12 [INFO] Waiting for motors to arm...
2025-11-18 17:46:12 [DEBUG] MAVLINK [COMMAND_ACK] COMMAND_ACK {command : 176, result : 0, progress : 0, result_param2 : 0, target_system : 255, target_component : 0}
2025-11-18 17:46:12 [DEBUG] MAVLINK [COMMAND_ACK] COMMAND_ACK {command : 400, result : 0, progress : 0, result_param2 : 0, target_system : 255, target_component : 0}
2025-11-18 17:46:12 [DEBUG] MAVLINK [GPS_GLOBAL_ORIGIN] GPS_GLOBAL_ORIGIN {latitude : 174481120, longitude : 783810011, altitude : 580800, time_usec : 514441355}
2025-11-18 17:46:12 [DEBUG] MAVLINK [HOME_POSITION] HOME_POSITION {latitude : 174481224, longitude : 783810041, altitude : 579710, x : 1.1577160358428955, y : 0.31859081983566284, z : 1.090000033378601, q : [nan, nan, nan, nan], approach_x : 0.0, approach_y : 0.0, approach_z : 0.0, time_usec : 514441371}
2025-11-18 17:46:12 [DEBUG] MAVLINK [STATUSTEXT] STATUSTEXT {severity : 4, text : Warning: Arming Checks Disabled, id : 0, chunk_seq : 0}
2025-11-18 17:46:12 [DEBUG] MAVLINK [AHRS] AHRS {omegaIx : 0.00017258392472285777, omegaIy : -7.172986897785449e-06, omegaIz : -0.00018512566748540848, accel_weight : 0.0, renorm_val : 0.0, error_rp : 0.0012850568164139986, error_yaw : 0.010006680153310299}
2025-11-18 17:46:12 [DEBUG] MAVLINK [AHRS2] AHRS2 {roll : -0.042877424508333206, pitch : 0.0024133995175361633, yaw : 2.0859084129333496, altitude : 578.6499633789062, lat : 174481219, lng : 783810019}
2025-11-18 17:46:12 [DEBUG] MAVLINK [ATTITUDE] ATTITUDE {time_boot_ms : 514668, roll : -0.030688125640153885, pitch : -0.003966626711189747, yaw : 2.025855779647827, rollspeed : 0.00030460505513474345, pitchspeed : 0.0003272279573138803, yawspeed : 0.00023955157666932791}
2025-11-18 17:46:12 [DEBUG] MAVLINK [GLOBAL_POSITION_INT] GLOBAL_POSITION_INT {time_boot_ms : 514668, lat : 174481224, lon : 783810039, alt : 579710, relative_alt : 2, vx : -2, vy : -2, vz : 0, hdg : 11607}
2025-11-18 17:46:12 [DEBUG] MAVLINK [VFR_HUD] VFR_HUD {airspeed : 0.03683342784643173, groundspeed : 0.035601090639829636, heading : 116, throttle : 0, alt : 579.7099609375, climb : -0.009447957389056683}
2025-11-18 17:46:12 [DEBUG] MAVLINK [SYS_STATUS] SYS_STATUS {onboard_control_sensors_present : 1399913519, onboard_control_sensors_enabled : 1130429487, onboard_control_sensors_health : 1198586927, load : 318, voltage_battery : 10959, current_battery : 2, battery_remaining : 95, drop_rate_comm : 0, errors_comm : 0, errors_count1 : 0, errors_count2 : 0, errors_count3 : 0, errors_count4 : 0}
2025-11-18 17:46:12 [DEBUG] MAVLINK [POWER_STATUS] POWER_STATUS {Vcc : 5273, Vservo : 5045, flags : 5}
2025-11-18 17:46:12 [DEBUG] MAVLINK [MEMINFO] MEMINFO {brkval : 0, freemem : 65535, freemem32 : 571776}
2025-11-18 17:46:12 [DEBUG] MAVLINK [NAV_CONTROLLER_OUTPUT] NAV_CONTROLLER_OUTPUT {nav_roll : -0.00024786050198599696, nav_pitch : -0.00030535354744642973, nav_bearing : 116, target_bearing : 0, wp_dist : 0, alt_error : 0.0, aspd_error : 0.0, xtrack_error : 0.0}
2025-11-18 17:46:12 [DEBUG] MAVLINK [MISSION_CURRENT] MISSION_CURRENT {seq : 0, total : 0, mission_state : 1, mission_mode : 0}
2025-11-18 17:46:12 [DEBUG] MAVLINK [SERVO_OUTPUT_RAW] SERVO_OUTPUT_RAW {time_usec : 514668376, port : 0, servo1_raw : 1000, servo2_raw : 1000, servo3_raw : 1000, servo4_raw : 1000, servo5_raw : 0, servo6_raw : 0, servo7_raw : 0, servo8_raw : 0, servo9_raw : 0, servo10_raw : 0, servo11_raw : 0, servo12_raw : 0, servo13_raw : 0, servo14_raw : 0, servo15_raw : 0, servo16_raw : 0}
2025-11-18 17:46:12 [DEBUG] MAVLINK [RC_CHANNELS] RC_CHANNELS {time_boot_ms : 514668, chancount : 0, chan1_raw : 0, chan2_raw : 0, chan3_raw : 0, chan4_raw : 0, chan5_raw : 0, chan6_raw : 0, chan7_raw : 0, chan8_raw : 0, chan9_raw : 0, chan10_raw : 0, chan11_raw : 0, chan12_raw : 0, chan13_raw : 0, chan14_raw : 0, chan15_raw : 0, chan16_raw : 0, chan17_raw : 0, chan18_raw : 0, rssi : 255}
2025-11-18 17:46:12 [DEBUG] MAVLINK [RAW_IMU] RAW_IMU {time_usec : 514668406, xacc : 12, yacc : 70, zacc : -999, xgyro : 0, ygyro : 0, zgyro : 0, xmag : -156, ymag : -271, zmag : 120, id : 0, temperature : 4480}
2025-11-18 17:46:12 [DEBUG] MAVLINK [SCALED_IMU2] SCALED_IMU2 {time_boot_ms : 514668, xacc : 15, yacc : 66, zacc : -998, xgyro : 0, ygyro : 0, zgyro : -1, xmag : -152, ymag : -364, zmag : 152, temperature : 4854}
2025-11-18 17:46:12 [DEBUG] MAVLINK [SCALED_IMU3] SCALED_IMU3 {time_boot_ms : 514668, xacc : 23, yacc : 60, zacc : -999, xgyro : 0, ygyro : 0, zgyro : -2, xmag : 0, ymag : 0, zmag : 0, temperature : 4743}
2025-11-18 17:46:12 [DEBUG] MAVLINK [SCALED_PRESSURE] SCALED_PRESSURE {time_boot_ms : 514670, press_abs : 949.1083984375, press_diff : 0.0, temperature : 4657, temperature_press_diff : 0}
2025-11-18 17:46:12 [DEBUG] MAVLINK [SCALED_PRESSURE2] SCALED_PRESSURE2 {time_boot_ms : 514670, press_abs : 949.18505859375, press_diff : 0.0, temperature : 4356, temperature_press_diff : 0}
2025-11-18 17:46:12 [DEBUG] MAVLINK [GPS_RAW_INT] GPS_RAW_INT {time_usec : 514513000, fix_type : 4, lat : 174481219, lon : 783810019, alt : 576180, eph : 69, epv : 112, vel : 4, cog : 9919, satellites_visible : 18, alt_ellipsoid : 502086, h_acc : 1398, v_acc : 2306, vel_acc : 393, hdg_acc : 0, yaw : 0}
2025-11-18 17:46:12 [DEBUG] MAVLINK [SYSTEM_TIME] SYSTEM_TIME {time_unix_usec : 1763468172558496, time_boot_ms : 514670}
2025-11-18 17:46:12 [DEBUG] MAVLINK [WIND] WIND {direction : -180.0, speed : 0.0, speed_z : 0.0}
2025-11-18 17:46:12 [DEBUG] MAVLINK [TERRAIN_REPORT] TERRAIN_REPORT {lat : 174481224, lon : 783810039, spacing : 100, terrain_height : 579.7095947265625, current_height : 0.00039231590926647186, pending : 0, loaded : 504}
2025-11-18 17:46:12 [DEBUG] MAVLINK [EKF_STATUS_REPORT] EKF_STATUS_REPORT {flags : 831, velocity_variance : 0.013803585432469845, pos_horiz_variance : 0.022249579429626465, pos_vert_variance : 0.001113028498366475, compass_variance : 0.04415881633758545, terrain_alt_variance : 0.0, airspeed_variance : 0.0}
2025-11-18 17:46:12 [DEBUG] MAVLINK [LOCAL_POSITION_NED] LOCAL_POSITION_NED {time_boot_ms : 514670, x : 1.147781491279602, y : 0.2936178147792816, z : 1.0871479511260986, vx : -0.02140437439084053, vy : -0.02847352810204029, vz : 0.00945995468646288}
2025-11-18 17:46:12 [DEBUG] MAVLINK [VIBRATION] VIBRATION {time_usec : 514670808, vibration_x : 0.00774576747789979, vibration_y : 0.00666397251188755, vibration_z : 0.008287116885185242, clipping_0 : 0, clipping_1 : 0, clipping_2 : 0}
2025-11-18 17:46:12 [DEBUG] MAVLINK [BATTERY_STATUS] BATTERY_STATUS {id : 0, battery_function : 0, type : 0, temperature : 32767, voltages : [10959, 65535, 65535, 65535, 65535, 65535, 65535, 65535, 65535, 65535], current_battery : 2, current_consumed : 217, energy_consumed : 78, battery_remaining : 95, time_remaining : 0, charge_state : 1, voltages_ext : [0, 0, 0, 0], mode : 0, fault_bitmask : 0}
2025-11-18 17:46:12 [DEBUG] MAVLINK [MCU_STATUS] MCU_STATUS {id : 0, MCU_temperature : 4527, MCU_voltage : 3286, MCU_voltage_min : 3280, MCU_voltage_max : 3294}
2025-11-18 17:46:12 [DEBUG] MAVLINK [HEARTBEAT] HEARTBEAT {type : 6, autopilot : 8, base_mode : 192, custom_mode : 0, system_status : 4, mavlink_version : 3}
2025-11-18 17:46:12 [DEBUG] MAVLINK [HEARTBEAT] HEARTBEAT {type : 2, autopilot : 3, base_mode : 217, custom_mode : 4, system_status : 5, mavlink_version : 3}
2025-11-18 17:46:12 [DEBUG] MAVLINK [AHRS] AHRS {omegaIx : 0.00016988691641017795, omegaIy : 6.709060471621342e-07, omegaIz : -0.0001750574738252908, accel_weight : 0.0, renorm_val : 0.0, error_rp : 0.006620255298912525, error_yaw : 0.008422879502177238}
2025-11-18 17:46:12 [DEBUG] MAVLINK [AHRS2] AHRS2 {roll : -0.043418675661087036, pitch : 0.0032558483071625233, yaw : 2.086818218231201, altitude : 578.510009765625, lat : 174481218, lng : 783810016}
2025-11-18 17:46:12 [DEBUG] MAVLINK [ATTITUDE] ATTITUDE {time_boot_ms : 514918, roll : -0.030722491443157196, pitch : -0.0038021113723516464, yaw : 2.0267701148986816, rollspeed : -0.00031384851899929345, pitchspeed : 0.0002808408753480762, yawspeed : 0.0010308678029105067}
2025-11-18 17:46:12 [DEBUG] MAVLINK [GLOBAL_POSITION_INT] GLOBAL_POSITION_INT {time_boot_ms : 514918, lat : 174481223, lon : 783810037, alt : 579700, relative_alt : -6, vx : -2, vy : -3, vz : 1, hdg : 11612}
2025-11-18 17:46:12 [DEBUG] MAVLINK [VFR_HUD] VFR_HUD {airspeed : 0.043529246002435684, groundspeed : 0.0417473278939724, heading : 116, throttle : 0, alt : 579.7000122070312, climb : -0.012327039614319801}
2025-11-18 17:46:12 [DEBUG] MAVLINK [SYS_STATUS] SYS_STATUS {onboard_control_sensors_present : 1399913519, onboard_control_sensors_enabled : 1130429487, onboard_control_sensors_health : 1198586927, load : 313, voltage_battery : 10960, current_battery : 2, battery_remaining : 95, drop_rate_comm : 0, errors_comm : 0, errors_count1 : 0, errors_count2 : 0, errors_count3 : 0, errors_count4 : 0}
2025-11-18 17:46:12 [DEBUG] MAVLINK [POWER_STATUS] POWER_STATUS {Vcc : 5267, Vservo : 5045, flags : 5}
2025-11-18 17:46:12 [DEBUG] MAVLINK [MEMINFO] MEMINFO {brkval : 0, freemem : 65535, freemem32 : 570384}
2025-11-18 17:46:12 [DEBUG] MAVLINK [NAV_CONTROLLER_OUTPUT] NAV_CONTROLLER_OUTPUT {nav_roll : -0.0002478604146745056, nav_pitch : -0.00030535354744642973, nav_bearing : 116, target_bearing : 0, wp_dist : 0, alt_error : 0.0, aspd_error : 0.0, xtrack_error : 0.0}
2025-11-18 17:46:12 [DEBUG] MAVLINK [MISSION_CURRENT] MISSION_CURRENT {seq : 0, total : 0, mission_state : 1, mission_mode : 0}
2025-11-18 17:46:12 [DEBUG] MAVLINK [SERVO_OUTPUT_RAW] SERVO_OUTPUT_RAW {time_usec : 514918327, port : 0, servo1_raw : 1000, servo2_raw : 1000, servo3_raw : 1000, servo4_raw : 1000, servo5_raw : 0, servo6_raw : 0, servo7_raw : 0, servo8_raw : 0, servo9_raw : 0, servo10_raw : 0, servo11_raw : 0, servo12_raw : 0, servo13_raw : 0, servo14_raw : 0, servo15_raw : 0, servo16_raw : 0}
2025-11-18 17:46:12 [DEBUG] MAVLINK [RC_CHANNELS] RC_CHANNELS {time_boot_ms : 514918, chancount : 0, chan1_raw : 0, chan2_raw : 0, chan3_raw : 0, chan4_raw : 0, chan5_raw : 0, chan6_raw : 0, chan7_raw : 0, chan8_raw : 0, chan9_raw : 0, chan10_raw : 0, chan11_raw : 0, chan12_raw : 0, chan13_raw : 0, chan14_raw : 0, chan15_raw : 0, chan16_raw : 0, chan17_raw : 0, chan18_raw : 0, rssi : 255}
2025-11-18 17:46:12 [DEBUG] MAVLINK [RAW_IMU] RAW_IMU {time_usec : 514920640, xacc : 13, yacc : 71, zacc : -998, xgyro : 0, ygyro : 0, zgyro : 1, xmag : -156, ymag : -271, zmag : 120, id : 0, temperature : 4480}
2025-11-18 17:46:12 [DEBUG] MAVLINK [SCALED_IMU2] SCALED_IMU2 {time_boot_ms : 514920, xacc : 13, yacc : 68, zacc : -997, xgyro : 1, ygyro : 1, zgyro : -1, xmag : -163, ymag : -362, zmag : 146, temperature : 4854}
2025-11-18 17:46:12 [DEBUG] MAVLINK [SCALED_IMU3] SCALED_IMU3 {time_boot_ms : 514920, xacc : 22, yacc : 59, zacc : -1000, xgyro : 0, ygyro : 0, zgyro : -1, xmag : 0, ymag : 0, zmag : 0, temperature : 4742}
2025-11-18 17:46:12 [DEBUG] MAVLINK [SCALED_PRESSURE] SCALED_PRESSURE {time_boot_ms : 514920, press_abs : 949.12451171875, press_diff : 0.0, temperature : 4658, temperature_press_diff : 0}
2025-11-18 17:46:12 [DEBUG] MAVLINK [SCALED_PRESSURE2] SCALED_PRESSURE2 {time_boot_ms : 514920, press_abs : 949.17724609375, press_diff : 0.0, temperature : 4356, temperature_press_diff : 0}
2025-11-18 17:46:12 [DEBUG] MAVLINK [GPS_RAW_INT] GPS_RAW_INT {time_usec : 514713000, fix_type : 4, lat : 174481218, lon : 783810017, alt : 576120, eph : 69, epv : 112, vel : 7, cog : 9919, satellites_visible : 18, alt_ellipsoid : 502026, h_acc : 1397, v_acc : 2300, vel_acc : 368, hdg_acc : 0, yaw : 0}
2025-11-18 17:46:12 [DEBUG] MAVLINK [SYSTEM_TIME] SYSTEM_TIME {time_unix_usec : 1763468172808574, time_boot_ms : 514920}
2025-11-18 17:46:12 [DEBUG] MAVLINK [WIND] WIND {direction : -180.0, speed : 0.0, speed_z : 0.0}
2025-11-18 17:46:12 [DEBUG] MAVLINK [TERRAIN_REPORT] TERRAIN_REPORT {lat : 174481223, lon : 783810037, spacing : 100, terrain_height : 579.7091064453125, current_height : -0.00911940261721611, pending : 0, loaded : 504}
2025-11-18 17:46:12 [DEBUG] MAVLINK [EKF_STATUS_REPORT] EKF_STATUS_REPORT {flags : 831, velocity_variance : 0.036517154425382614, pos_horiz_variance : 0.022548047825694084, pos_vert_variance : 0.005265657790005207, compass_variance : 0.04319019243121147, terrain_alt_variance : 0.0, airspeed_variance : 0.0}
2025-11-18 17:46:12 [DEBUG] MAVLINK [LOCAL_POSITION_NED] LOCAL_POSITION_NED {time_boot_ms : 514920, x : 1.143121361732483, y : 0.26585403084754944, z : 1.0961214303970337, vx : -0.02048003487288952, vy : -0.03638149052858353, vz : 0.012325439602136612}
2025-11-18 17:46:12 [DEBUG] MAVLINK [VIBRATION] VIBRATION {time_usec : 514920876, vibration_x : 0.00831923633813858, vibration_y : 0.00666228448972106, vibration_z : 0.00878525897860527, clipping_0 : 0, clipping_1 : 0, clipping_2 : 0}
2025-11-18 17:46:12 [DEBUG] MAVLINK [BATTERY_STATUS] BATTERY_STATUS {id : 0, battery_function : 0, type : 0, temperature : 32767, voltages : [10960, 65535, 65535, 65535, 65535, 65535, 65535, 65535, 65535, 65535], current_battery : 2, current_consumed : 217, energy_consumed : 78, battery_remaining : 95, time_remaining : 0, charge_state : 1, voltages_ext : [0, 0, 0, 0], mode : 0, fault_bitmask : 0}
2025-11-18 17:46:12 [DEBUG] MAVLINK [MCU_STATUS] MCU_STATUS {id : 0, MCU_temperature : 4525, MCU_voltage : 3286, MCU_voltage_min : 3279, MCU_voltage_max : 3293}
2025-11-18 17:46:13 [DEBUG] MAVLINK [AHRS] AHRS {omegaIx : 0.0001631648774491623, omegaIy : -5.495817845257989e-07, omegaIz : -0.0001611748884897679, accel_weight : 0.0, renorm_val : 0.0, error_rp : 0.01640228182077408, error_yaw : 0.007730924524366856}
2025-11-18 17:46:13 [DEBUG] MAVLINK [AHRS2] AHRS2 {roll : -0.04292589798569679, pitch : 0.002109673572704196, yaw : 2.0876893997192383, altitude : 578.6099853515625, lat : 174481217, lng : 783810011}
2025-11-18 17:46:13 [DEBUG] MAVLINK [ATTITUDE] ATTITUDE {time_boot_ms : 515168, roll : -0.03072851151227951, pitch : -0.0038031255826354027, yaw : 2.0276713371276855, rollspeed : 0.00017107163148466498, pitchspeed : -0.00038517071516253054, yawspeed : 0.0012752675684168935}
2025-11-18 17:46:13 [DEBUG] MAVLINK [GLOBAL_POSITION_INT] GLOBAL_POSITION_INT {time_boot_ms : 515168, lat : 174481223, lon : 783810034, alt : 579690, relative_alt : -15, vx : -2, vy : -4, vz : 1, hdg : 11617}
2025-11-18 17:46:13 [DEBUG] MAVLINK [VFR_HUD] VFR_HUD {airspeed : 0.04834165424108505, groundspeed : 0.04608980193734169, heading : 116, throttle : 0, alt : 579.6900024414062, climb : -0.014582385309040546}
2025-11-18 17:46:13 [DEBUG] MAVLINK [SYS_STATUS] SYS_STATUS {onboard_control_sensors_present : 1399913519, onboard_control_sensors_enabled : 1130429487, onboard_control_sensors_health : 1198586927, load : 340, voltage_battery : 10954, current_battery : 1, battery_remaining : 95, drop_rate_comm : 0, errors_comm : 0, errors_count1 : 0, errors_count2 : 0, errors_count3 : 0, errors_count4 : 0}
2025-11-18 17:46:13 [DEBUG] MAVLINK [POWER_STATUS] POWER_STATUS {Vcc : 5270, Vservo : 5035, flags : 5}
2025-11-18 17:46:13 [DEBUG] MAVLINK [MEMINFO] MEMINFO {brkval : 0, freemem : 65535, freemem32 : 563624}
2025-11-18 17:46:13 [DEBUG] MAVLINK [NAV_CONTROLLER_OUTPUT] NAV_CONTROLLER_OUTPUT {nav_roll : -0.00024786038557067513, nav_pitch : -0.00030535346013493836, nav_bearing : 116, target_bearing : 0, wp_dist : 0, alt_error : 0.0, aspd_error : 0.0, xtrack_error : 0.0}
2025-11-18 17:46:13 [DEBUG] MAVLINK [MISSION_CURRENT] MISSION_CURRENT {seq : 0, total : 0, mission_state : 1, mission_mode : 0}
2025-11-18 17:46:13 [DEBUG] MAVLINK [SERVO_OUTPUT_RAW] SERVO_OUTPUT_RAW {time_usec : 515168335, port : 0, servo1_raw : 1000, servo2_raw : 1000, servo3_raw : 1000, servo4_raw : 1000, servo5_raw : 0, servo6_raw : 0, servo7_raw : 0, servo8_raw : 0, servo9_raw : 0, servo10_raw : 0, servo11_raw : 0, servo12_raw : 0, servo13_raw : 0, servo14_raw : 0, servo15_raw : 0, servo16_raw : 0}
2025-11-18 17:46:13 [DEBUG] MAVLINK [RC_CHANNELS] RC_CHANNELS {time_boot_ms : 515168, chancount : 0, chan1_raw : 0, chan2_raw : 0, chan3_raw : 0, chan4_raw : 0, chan5_raw : 0, chan6_raw : 0, chan7_raw : 0, chan8_raw : 0, chan9_raw : 0, chan10_raw : 0, chan11_raw : 0, chan12_raw : 0, chan13_raw : 0, chan14_raw : 0, chan15_raw : 0, chan16_raw : 0, chan17_raw : 0, chan18_raw : 0, rssi : 255}
2025-11-18 17:46:13 [DEBUG] MAVLINK [RAW_IMU] RAW_IMU {time_usec : 515170611, xacc : 12, yacc : 70, zacc : -998, xgyro : 0, ygyro : 0, zgyro : 1, xmag : -157, ymag : -271, zmag : 121, id : 0, temperature : 4480}
2025-11-18 17:46:13 [DEBUG] MAVLINK [SCALED_IMU2] SCALED_IMU2 {time_boot_ms : 515170, xacc : 16, yacc : 66, zacc : -999, xgyro : 1, ygyro : 0, zgyro : 0, xmag : -165, ymag : -364, zmag : 141, temperature : 4855}
2025-11-18 17:46:13 [DEBUG] MAVLINK [SCALED_IMU3] SCALED_IMU3 {time_boot_ms : 515170, xacc : 24, yacc : 58, zacc : -1002, xgyro : -1, ygyro : 0, zgyro : -1, xmag : 0, ymag : 0, zmag : 0, temperature : 4743}
2025-11-18 17:46:13 [DEBUG] MAVLINK [SCALED_PRESSURE] SCALED_PRESSURE {time_boot_ms : 515170, press_abs : 949.1124877929688, press_diff : 0.0, temperature : 4658, temperature_press_diff : 0}
2025-11-18 17:46:13 [DEBUG] MAVLINK [SCALED_PRESSURE2] SCALED_PRESSURE2 {time_boot_ms : 515170, press_abs : 949.1729736328125, press_diff : 0.0, temperature : 4356, temperature_press_diff : 0}
2025-11-18 17:46:13 [DEBUG] MAVLINK [GPS_RAW_INT] GPS_RAW_INT {time_usec : 515113000, fix_type : 4, lat : 174481217, lon : 783810011, alt : 575960, eph : 69, epv : 112, vel : 4, cog : 9919, satellites_visible : 18, alt_ellipsoid : 501865, h_acc : 1396, v_acc : 2287, vel_acc : 360, hdg_acc : 0, yaw : 0}
2025-11-18 17:46:13 [DEBUG] MAVLINK [SYSTEM_TIME] SYSTEM_TIME {time_unix_usec : 1763468173058594, time_boot_ms : 515170}
2025-11-18 17:46:13 [DEBUG] MAVLINK [WIND] WIND {direction : -180.0, speed : 0.0, speed_z : 0.0}
2025-11-18 17:46:13 [DEBUG] MAVLINK [TERRAIN_REPORT] TERRAIN_REPORT {lat : 174481223, lon : 783810034, spacing : 100, terrain_height : 579.7085571289062, current_height : -0.018570085987448692, pending : 0, loaded : 504}
2025-11-18 17:46:13 [DEBUG] MAVLINK [EKF_STATUS_REPORT] EKF_STATUS_REPORT {flags : 831, velocity_variance : 0.030113397166132927, pos_horiz_variance : 0.02476481907069683, pos_vert_variance : 0.00016377509746234864, compass_variance : 0.04438493400812149, terrain_alt_variance : 0.0, airspeed_variance : 0.0}
2025-11-18 17:46:13 [DEBUG] MAVLINK [LOCAL_POSITION_NED] LOCAL_POSITION_NED {time_boot_ms : 515170, x : 1.1371526718139648, y : 0.23946863412857056, z : 1.105049967765808, vx : -0.02020985633134842, vy : -0.04144880175590515, vz : 0.014598164707422256}
2025-11-18 17:46:13 [DEBUG] MAVLINK [VIBRATION] VIBRATION {time_usec : 515170896, vibration_x : 0.006559834349900484, vibration_y : 0.007229210808873177, vibration_z : 0.007935653440654278, clipping_0 : 0, clipping_1 : 0, clipping_2 : 0}
2025-11-18 17:46:13 [DEBUG] MAVLINK [BATTERY_STATUS] BATTERY_STATUS {id : 0, battery_function : 0, type : 0, temperature : 32767, voltages : [10954, 65535, 65535, 65535, 65535, 65535, 65535, 65535, 65535, 65535], current_battery : 1, current_consumed : 217, energy_consumed : 78, battery_remaining : 95, time_remaining : 0, charge_state : 1, voltages_ext : [0, 0, 0, 0], mode : 0, fault_bitmask : 0}
2025-11-18 17:46:13 [DEBUG] MAVLINK [MCU_STATUS] MCU_STATUS {id : 0, MCU_temperature : 4523, MCU_voltage : 3286, MCU_voltage_min : 3277, MCU_voltage_max : 3295}
2025-11-18 17:46:13 [DEBUG] MAVLINK [HEARTBEAT] HEARTBEAT {type : 27, autopilot : 8, base_mode : 4, custom_mode : 0, system_status : 4, mavlink_version : 3}
2025-11-18 17:46:13 [DEBUG] MAVLINK [AHRS] AHRS {omegaIx : 0.0001645242446102202, omegaIy : -4.557900410873117e-06, omegaIz : -0.00015178215107880533, accel_weight : 0.0, renorm_val : 0.0, error_rp : 0.020911691710352898, error_yaw : 0.007750374265015125}
2025-11-18 17:46:13 [DEBUG] MAVLINK [AHRS2] AHRS2 {roll : -0.04314495623111725, pitch : 0.002584054134786129, yaw : 2.0886082649230957, altitude : 578.6099853515625, lat : 174481217, lng : 783810009}
2025-11-18 17:46:13 [DEBUG] MAVLINK [ATTITUDE] ATTITUDE {time_boot_ms : 515418, roll : -0.030878189951181412, pitch : -0.0037987390533089638, yaw : 2.028576374053955, rollspeed : 0.0003155869781039655, pitchspeed : -0.0008192518725991249, yawspeed : 0.0009270900627598166}
2025-11-18 17:46:13 [DEBUG] MAVLINK [GLOBAL_POSITION_INT] GLOBAL_POSITION_INT {time_boot_ms : 515418, lat : 174481222, lon : 783810032, alt : 579680, relative_alt : -23, vx : -1, vy : -4, vz : 1, hdg : 11622}
2025-11-18 17:46:13 [DEBUG] MAVLINK [VFR_HUD] VFR_HUD {airspeed : 0.05075402185320854, groundspeed : 0.0478755347430706, heading : 116, throttle : 0, alt : 579.6799926757812, climb : -0.016849448904395103}
2025-11-18 17:46:13 [DEBUG] MAVLINK [SYS_STATUS] SYS_STATUS {onboard_control_sensors_present : 1399913519, onboard_control_sensors_enabled : 1130429487, onboard_control_sensors_health : 1198586927, load : 324, voltage_battery : 10954, current_battery : 1, battery_remaining : 95, drop_rate_comm : 0, errors_comm : 0, errors_count1 : 0, errors_count2 : 0, errors_count3 : 0, errors_count4 : 0}
2025-11-18 17:46:13 [DEBUG] MAVLINK [POWER_STATUS] POWER_STATUS {Vcc : 5285, Vservo : 5021, flags : 5}
2025-11-18 17:46:13 [DEBUG] MAVLINK [MEMINFO] MEMINFO {brkval : 0, freemem : 65535, freemem32 : 563624}
2025-11-18 17:46:13 [DEBUG] MAVLINK [NAV_CONTROLLER_OUTPUT] NAV_CONTROLLER_OUTPUT {nav_roll : -0.0002478604146745056, nav_pitch : -0.0003053533146157861, nav_bearing : 116, target_bearing : 0, wp_dist : 0, alt_error : 0.0, aspd_error : 0.0, xtrack_error : 0.0}
2025-11-18 17:46:13 [DEBUG] MAVLINK [MISSION_CURRENT] MISSION_CURRENT {seq : 0, total : 0, mission_state : 1, mission_mode : 0}
2025-11-18 17:46:13 [DEBUG] MAVLINK [SERVO_OUTPUT_RAW] SERVO_OUTPUT_RAW {time_usec : 515418315, port : 0, servo1_raw : 1000, servo2_raw : 1000, servo3_raw : 1000, servo4_raw : 1000, servo5_raw : 0, servo6_raw : 0, servo7_raw : 0, servo8_raw : 0, servo9_raw : 0, servo10_raw : 0, servo11_raw : 0, servo12_raw : 0, servo13_raw : 0, servo14_raw : 0, servo15_raw : 0, servo16_raw : 0}
2025-11-18 17:46:13 [DEBUG] MAVLINK [RC_CHANNELS] RC_CHANNELS {time_boot_ms : 515418, chancount : 0, chan1_raw : 0, chan2_raw : 0, chan3_raw : 0, chan4_raw : 0, chan5_raw : 0, chan6_raw : 0, chan7_raw : 0, chan8_raw : 0, chan9_raw : 0, chan10_raw : 0, chan11_raw : 0, chan12_raw : 0, chan13_raw : 0, chan14_raw : 0, chan15_raw : 0, chan16_raw : 0, chan17_raw : 0, chan18_raw : 0, rssi : 255}
2025-11-18 17:46:13 [DEBUG] MAVLINK [RAW_IMU] RAW_IMU {time_usec : 515418408, xacc : 11, yacc : 69, zacc : -999, xgyro : 0, ygyro : 0, zgyro : 1, xmag : -158, ymag : -272, zmag : 122, id : 0, temperature : 4480}
2025-11-18 17:46:13 [DEBUG] MAVLINK [SCALED_IMU2] SCALED_IMU2 {time_boot_ms : 515418, xacc : 13, yacc : 65, zacc : -998, xgyro : 1, ygyro : -1, zgyro : 0, xmag : -156, ymag : -363, zmag : 152, temperature : 4855}
2025-11-18 17:46:13 [DEBUG] MAVLINK [SCALED_IMU3] SCALED_IMU3 {time_boot_ms : 515420, xacc : 21, yacc : 58, zacc : -1001, xgyro : 0, ygyro : -1, zgyro : 0, xmag : 0, ymag : 0, zmag : 0, temperature : 4743}
2025-11-18 17:46:13 [DEBUG] MAVLINK [SCALED_PRESSURE] SCALED_PRESSURE {time_boot_ms : 515420, press_abs : 949.1128540039062, press_diff : 0.0, temperature : 4658, temperature_press_diff : 0}
2025-11-18 17:46:13 [DEBUG] MAVLINK [SCALED_PRESSURE2] SCALED_PRESSURE2 {time_boot_ms : 515420, press_abs : 949.1763916015625, press_diff : 0.0, temperature : 4355, temperature_press_diff : 0}
2025-11-18 17:46:13 [DEBUG] MAVLINK [GPS_RAW_INT] GPS_RAW_INT {time_usec : 515313000, fix_type : 4, lat : 174481217, lon : 783810009, alt : 575920, eph : 69, epv : 112, vel : 3, cog : 9919, satellites_visible : 18, alt_ellipsoid : 501826, h_acc : 1395, v_acc : 2282, vel_acc : 398, hdg_acc : 0, yaw : 0}
2025-11-18 17:46:13 [DEBUG] MAVLINK [SYSTEM_TIME] SYSTEM_TIME {time_unix_usec : 1763468173308529, time_boot_ms : 515420}
2025-11-18 17:46:13 [DEBUG] MAVLINK [WIND] WIND {direction : -180.0, speed : 0.0, speed_z : 0.0}
2025-11-18 17:46:13 [DEBUG] MAVLINK [TERRAIN_REPORT] TERRAIN_REPORT {lat : 174481222, lon : 783810032, spacing : 100, terrain_height : 579.708251953125, current_height : -0.028264909982681274, pending : 0, loaded : 504}
2025-11-18 17:46:13 [DEBUG] MAVLINK [EKF_STATUS_REPORT] EKF_STATUS_REPORT {flags : 831, velocity_variance : 0.01811627298593521, pos_horiz_variance : 0.025150811299681664, pos_vert_variance : 0.0012492492096498609, compass_variance : 0.04495235159993172, terrain_alt_variance : 0.0, airspeed_variance : 0.0}
2025-11-18 17:46:13 [DEBUG] MAVLINK [LOCAL_POSITION_NED] LOCAL_POSITION_NED {time_boot_ms : 515422, x : 1.1341701745986938, y : 0.21432167291641235, z : 1.1138272285461426, vx : -0.017846550792455673, vy : -0.04445239529013634, vz : 0.016858292743563652}
2025-11-18 17:46:13 [DEBUG] MAVLINK [VIBRATION] VIBRATION {time_usec : 515422954, vibration_x : 0.011207149364054203, vibration_y : 0.01080528274178505, vibration_z : 0.008958342485129833, clipping_0 : 0, clipping_1 : 0, clipping_2 : 0}
2025-11-18 17:46:13 [DEBUG] MAVLINK [BATTERY_STATUS] BATTERY_STATUS {id : 0, battery_function : 0, type : 0, temperature : 32767, voltages : [10954, 65535, 65535, 65535, 65535, 65535, 65535, 65535, 65535, 65535], current_battery : 1, current_consumed : 217, energy_consumed : 78, battery_remaining : 95, time_remaining : 0, charge_state : 1, voltages_ext : [0, 0, 0, 0], mode : 0, fault_bitmask : 0}
2025-11-18 17:46:13 [DEBUG] MAVLINK [MCU_STATUS] MCU_STATUS {id : 0, MCU_temperature : 4529, MCU_voltage : 3286, MCU_voltage_min : 3276, MCU_voltage_max : 3294}
2025-11-18 17:46:13 [INFO] Waiting for motors to arm...
2025-11-18 17:46:13 [DEBUG] MAVLINK [AHRS] AHRS {omegaIx : 0.00017019419465214014, omegaIy : -6.9810116656299215e-06, omegaIz : -0.00013794760161545128, accel_weight : 0.0, renorm_val : 0.0, error_rp : 0.020438335835933685, error_yaw : 0.0067562744952738285}
2025-11-18 17:46:13 [DEBUG] MAVLINK [AHRS2] AHRS2 {roll : -0.04207156226038933, pitch : 0.00199718726798892, yaw : 2.0894880294799805, altitude : 578.5800170898438, lat : 174481214, lng : 783810007}
2025-11-18 17:46:13 [DEBUG] MAVLINK [ATTITUDE] ATTITUDE {time_boot_ms : 515668, roll : -0.030842885375022888, pitch : -0.0038255760446190834, yaw : 2.0295159816741943, rollspeed : -0.004185320343822241, pitchspeed : 0.0028107999823987484, yawspeed : 0.0011503843124955893}
2025-11-18 17:46:13 [DEBUG] MAVLINK [GLOBAL_POSITION_INT] GLOBAL_POSITION_INT {time_boot_ms : 515668, lat : 174481221, lon : 783810029, alt : 579680, relative_alt : -29, vx : -2, vy : -4, vz : 1, hdg : 11628}
2025-11-18 17:46:13 [DEBUG] MAVLINK [VFR_HUD] VFR_HUD {airspeed : 0.054511841386556625, groundspeed : 0.051515962928533554, heading : 116, throttle : 0, alt : 579.6799926757812, climb : -0.017822638154029846}
2025-11-18 17:46:13 [DEBUG] MAVLINK [SYS_STATUS] SYS_STATUS {onboard_control_sensors_present : 1399913519, onboard_control_sensors_enabled : 1130429487, onboard_control_sensors_health : 1198586927, load : 316, voltage_battery : 10960, current_battery : 2, battery_remaining : 95, drop_rate_comm : 0, errors_comm : 0, errors_count1 : 0, errors_count2 : 0, errors_count3 : 0, errors_count4 : 0}
2025-11-18 17:46:13 [DEBUG] MAVLINK [POWER_STATUS] POWER_STATUS {Vcc : 5256, Vservo : 5026, flags : 5}
2025-11-18 17:46:13 [DEBUG] MAVLINK [MEMINFO] MEMINFO {brkval : 0, freemem : 65535, freemem32 : 563624}
2025-11-18 17:46:13 [DEBUG] MAVLINK [NAV_CONTROLLER_OUTPUT] NAV_CONTROLLER_OUTPUT {nav_roll : -0.0002478604728821665, nav_pitch : -0.00030535340192727745, nav_bearing : 116, target_bearing : 0, wp_dist : 0, alt_error : 0.0, aspd_error : 0.0, xtrack_error : 0.0}
2025-11-18 17:46:13 [DEBUG] MAVLINK [MISSION_CURRENT] MISSION_CURRENT {seq : 0, total : 0, mission_state : 1, mission_mode : 0}
2025-11-18 17:46:13 [DEBUG] MAVLINK [SERVO_OUTPUT_RAW] SERVO_OUTPUT_RAW {time_usec : 515668347, port : 0, servo1_raw : 1000, servo2_raw : 1000, servo3_raw : 1000, servo4_raw : 1000, servo5_raw : 0, servo6_raw : 0, servo7_raw : 0, servo8_raw : 0, servo9_raw : 0, servo10_raw : 0, servo11_raw : 0, servo12_raw : 0, servo13_raw : 0, servo14_raw : 0, servo15_raw : 0, servo16_raw : 0}
2025-11-18 17:46:13 [DEBUG] MAVLINK [RC_CHANNELS] RC_CHANNELS {time_boot_ms : 515668, chancount : 0, chan1_raw : 0, chan2_raw : 0, chan3_raw : 0, chan4_raw : 0, chan5_raw : 0, chan6_raw : 0, chan7_raw : 0, chan8_raw : 0, chan9_raw : 0, chan10_raw : 0, chan11_raw : 0, chan12_raw : 0, chan13_raw : 0, chan14_raw : 0, chan15_raw : 0, chan16_raw : 0, chan17_raw : 0, chan18_raw : 0, rssi : 255}
2025-11-18 17:46:13 [DEBUG] MAVLINK [RAW_IMU] RAW_IMU {time_usec : 515668378, xacc : 11, yacc : 68, zacc : -999, xgyro : -4, ygyro : 2, zgyro : 1, xmag : -157, ymag : -271, zmag : 121, id : 0, temperature : 4480}
2025-11-18 17:46:13 [DEBUG] MAVLINK [SCALED_IMU2] SCALED_IMU2 {time_boot_ms : 515668, xacc : 12, yacc : 65, zacc : -997, xgyro : -1, ygyro : 1, zgyro : -1, xmag : -146, ymag : -367, zmag : 154, temperature : 4855}
2025-11-18 17:46:13 [DEBUG] MAVLINK [SCALED_IMU3] SCALED_IMU3 {time_boot_ms : 515668, xacc : 18, yacc : 58, zacc : -1000, xgyro : -5, ygyro : 2, zgyro : -2, xmag : 0, ymag : 0, zmag : 0, temperature : 4743}
2025-11-18 17:46:13 [DEBUG] MAVLINK [SCALED_PRESSURE] SCALED_PRESSURE {time_boot_ms : 515668, press_abs : 949.1158447265625, press_diff : 0.0, temperature : 4658, temperature_press_diff : 0}
2025-11-18 17:46:13 [DEBUG] MAVLINK [SCALED_PRESSURE2] SCALED_PRESSURE2 {time_boot_ms : 515668, press_abs : 949.1848754882812, press_diff : 0.0, temperature : 4356, temperature_press_diff : 0}
2025-11-18 17:46:13 [DEBUG] MAVLINK [GPS_RAW_INT] GPS_RAW_INT {time_usec : 515513000, fix_type : 4, lat : 174481215, lon : 783810007, alt : 575840, eph : 69, epv : 112, vel : 7, cog : 9919, satellites_visible : 18, alt_ellipsoid : 501746, h_acc : 1395, v_acc : 2276, vel_acc : 389, hdg_acc : 0, yaw : 0}
2025-11-18 17:46:13 [DEBUG] MAVLINK [SYSTEM_TIME] SYSTEM_TIME {time_unix_usec : 1763468173558441, time_boot_ms : 515670}
2025-11-18 17:46:13 [DEBUG] MAVLINK [WIND] WIND {direction : -180.0, speed : 0.0, speed_z : 0.0}
2025-11-18 17:46:13 [DEBUG] MAVLINK [TERRAIN_REPORT] TERRAIN_REPORT {lat : 174481221, lon : 783810029, spacing : 100, terrain_height : 579.7076416015625, current_height : -0.027654558420181274, pending : 0, loaded : 504}
2025-11-18 17:46:13 [DEBUG] MAVLINK [EKF_STATUS_REPORT] EKF_STATUS_REPORT {flags : 831, velocity_variance : 0.016884695738554, pos_horiz_variance : 0.025909455493092537, pos_vert_variance : 0.0007064882665872574, compass_variance : 0.04412010684609413, terrain_alt_variance : 0.0, airspeed_variance : 0.0}
2025-11-18 17:46:13 [DEBUG] MAVLINK [LOCAL_POSITION_NED] LOCAL_POSITION_NED {time_boot_ms : 515670, x : 1.1232807636260986, y : 0.1895703673362732, z : 1.1192913055419922, vx : -0.02108757384121418, vy : -0.04698806256055832, vz : 0.01784992218017578}
2025-11-18 17:46:13 [DEBUG] MAVLINK [VIBRATION] VIBRATION {time_usec : 515670781, vibration_x : 0.025579653680324554, vibration_y : 0.02727179042994976, vibration_z : 0.009067927487194538, clipping_0 : 0, clipping_1 : 0, clipping_2 : 0}
2025-11-18 17:46:13 [DEBUG] MAVLINK [BATTERY_STATUS] BATTERY_STATUS {id : 0, battery_function : 0, type : 0, temperature : 32767, voltages : [10960, 65535, 65535, 65535, 65535, 65535, 65535, 65535, 65535, 65535], current_battery : 2, current_consumed : 217, energy_consumed : 78, battery_remaining : 95, time_remaining : 0, charge_state : 1, voltages_ext : [0, 0, 0, 0], mode : 0, fault_bitmask : 0}
2025-11-18 17:46:13 [DEBUG] MAVLINK [MCU_STATUS] MCU_STATUS {id : 0, MCU_temperature : 4525, MCU_voltage : 3286, MCU_voltage_min : 3279, MCU_voltage_max : 3296}
2025-11-18 17:46:13 [DEBUG] MAVLINK [HEARTBEAT] HEARTBEAT {type : 6, autopilot : 8, base_mode : 192, custom_mode : 0, system_status : 4, mavlink_version : 3}
2025-11-18 17:46:13 [DEBUG] MAVLINK [HEARTBEAT] HEARTBEAT {type : 2, autopilot : 3, base_mode : 217, custom_mode : 4, system_status : 5, mavlink_version : 3}
2025-11-18 17:46:13 [DEBUG] MAVLINK [AHRS] AHRS {omegaIx : 0.00017526182637084275, omegaIy : -1.305618388869334e-05, omegaIz : -0.00012912026431877166, accel_weight : 0.0, renorm_val : 0.0, error_rp : 0.018652113154530525, error_yaw : 0.005259307101368904}
2025-11-18 17:46:13 [DEBUG] MAVLINK [AHRS2] AHRS2 {roll : -0.041404906660318375, pitch : 0.0016535843024030328, yaw : 2.090341567993164, altitude : 578.760009765625, lat : 174481212, lng : 783810004}
2025-11-18 17:46:13 [DEBUG] MAVLINK [ATTITUDE] ATTITUDE {time_boot_ms : 515918, roll : -0.030533846467733383, pitch : -0.0039824144914746284, yaw : 2.0304274559020996, rollspeed : 0.001344403252005577, pitchspeed : -0.0008849059231579304, yawspeed : 0.0019961551297456026}
2025-11-18 17:46:13 [DEBUG] MAVLINK [GLOBAL_POSITION_INT] GLOBAL_POSITION_INT {time_boot_ms : 515918, lat : 174481220, lon : 783810027, alt : 579670, relative_alt : -33, vx : -2, vy : -4, vz : 1, hdg : 11633}
2025-11-18 17:46:13 [DEBUG] MAVLINK [VFR_HUD] VFR_HUD {airspeed : 0.05901913717389107, groundspeed : 0.05612732842564583, heading : 116, throttle : 0, alt : 579.6699829101562, climb : -0.01824777200818062}
2025-11-18 17:46:13 [DEBUG] MAVLINK [SYS_STATUS] SYS_STATUS {onboard_control_sensors_present : 1399913519, onboard_control_sensors_enabled : 1130429487, onboard_control_sensors_health : 1198586927, load : 311, voltage_battery : 10960, current_battery : 2, battery_remaining : 95, drop_rate_comm : 0, errors_comm : 0, errors_count1 : 0, errors_count2 : 0, errors_count3 : 0, errors_count4 : 0}
2025-11-18 17:46:13 [DEBUG] MAVLINK [POWER_STATUS] POWER_STATUS {Vcc : 5284, Vservo : 5035, flags : 5}
2025-11-18 17:46:13 [DEBUG] MAVLINK [MEMINFO] MEMINFO {brkval : 0, freemem : 65535, freemem32 : 563624}
2025-11-18 17:46:13 [DEBUG] MAVLINK [NAV_CONTROLLER_OUTPUT] NAV_CONTROLLER_OUTPUT {nav_roll : -0.0002478604728821665, nav_pitch : -0.00030535334371961653, nav_bearing : 116, target_bearing : 0, wp_dist : 0, alt_error : 0.0, aspd_error : 0.0, xtrack_error : 0.0}
2025-11-18 17:46:13 [DEBUG] MAVLINK [MISSION_CURRENT] MISSION_CURRENT {seq : 0, total : 0, mission_state : 1, mission_mode : 0}
2025-11-18 17:46:13 [DEBUG] MAVLINK [SERVO_OUTPUT_RAW] SERVO_OUTPUT_RAW {time_usec : 515918356, port : 0, servo1_raw : 1000, servo2_raw : 1000, servo3_raw : 1000, servo4_raw : 1000, servo5_raw : 0, servo6_raw : 0, servo7_raw : 0, servo8_raw : 0, servo9_raw : 0, servo10_raw : 0, servo11_raw : 0, servo12_raw : 0, servo13_raw : 0, servo14_raw : 0, servo15_raw : 0, servo16_raw : 0}
2025-11-18 17:46:13 [DEBUG] MAVLINK [RC_CHANNELS] RC_CHANNELS {time_boot_ms : 515918, chancount : 0, chan1_raw : 0, chan2_raw : 0, chan3_raw : 0, chan4_raw : 0, chan5_raw : 0, chan6_raw : 0, chan7_raw : 0, chan8_raw : 0, chan9_raw : 0, chan10_raw : 0, chan11_raw : 0, chan12_raw : 0, chan13_raw : 0, chan14_raw : 0, chan15_raw : 0, chan16_raw : 0, chan17_raw : 0, chan18_raw : 0, rssi : 255}
2025-11-18 17:46:13 [DEBUG] MAVLINK [RAW_IMU] RAW_IMU {time_usec : 515918423, xacc : 16, yacc : 72, zacc : -999, xgyro : 1, ygyro : 0, zgyro : 2, xmag : -157, ymag : -272, zmag : 121, id : 0, temperature : 4480}
2025-11-18 17:46:13 [DEBUG] MAVLINK [SCALED_IMU2] SCALED_IMU2 {time_boot_ms : 515918, xacc : 19, yacc : 72, zacc : -999, xgyro : 1, ygyro : 0, zgyro : 2, xmag : -149, ymag : -349, zmag : 157, temperature : 4854}
2025-11-18 17:46:13 [DEBUG] MAVLINK [SCALED_IMU3] SCALED_IMU3 {time_boot_ms : 515918, xacc : 25, yacc : 61, zacc : -1000, xgyro : 1, ygyro : -2, zgyro : -1, xmag : 0, ymag : 0, zmag : 0, temperature : 4743}
2025-11-18 17:46:13 [DEBUG] MAVLINK [SCALED_PRESSURE] SCALED_PRESSURE {time_boot_ms : 515918, press_abs : 949.0950317382812, press_diff : 0.0, temperature : 4658, temperature_press_diff : 0}
2025-11-18 17:46:13 [DEBUG] MAVLINK [SCALED_PRESSURE2] SCALED_PRESSURE2 {time_boot_ms : 515918, press_abs : 949.1658325195312, press_diff : 0.0, temperature : 4356, temperature_press_diff : 0}
2025-11-18 17:46:13 [DEBUG] MAVLINK [GPS_RAW_INT] GPS_RAW_INT {time_usec : 515713000, fix_type : 4, lat : 174481214, lon : 783810004, alt : 575780, eph : 69, epv : 112, vel : 7, cog : 9919, satellites_visible : 18, alt_ellipsoid : 501686, h_acc : 1394, v_acc : 2271, vel_acc : 368, hdg_acc : 0, yaw : 0}
2025-11-18 17:46:13 [DEBUG] MAVLINK [SYSTEM_TIME] SYSTEM_TIME {time_unix_usec : 1763468173808399, time_boot_ms : 515920}
2025-11-18 17:46:13 [DEBUG] MAVLINK [WIND] WIND {direction : -180.0, speed : 0.0, speed_z : 0.0}
2025-11-18 17:46:13 [DEBUG] MAVLINK [TERRAIN_REPORT] TERRAIN_REPORT {lat : 174481220, lon : 783810027, spacing : 100, terrain_height : 579.7070922851562, current_height : -0.03710523992776871, pending : 0, loaded : 504}
2025-11-18 17:46:13 [DEBUG] MAVLINK [EKF_STATUS_REPORT] EKF_STATUS_REPORT {flags : 831, velocity_variance : 0.02462974190711975, pos_horiz_variance : 0.02674213983118534, pos_vert_variance : 0.012296469882130623, compass_variance : 0.042666539549827576, terrain_alt_variance : 0.0, airspeed_variance : 0.0}
2025-11-18 17:46:13 [DEBUG] MAVLINK [LOCAL_POSITION_NED] LOCAL_POSITION_NED {time_boot_ms : 515920, x : 1.1049220561981201, y : 0.1651378571987152, z : 1.1232411861419678, vx : -0.0281231626868248, vy : -0.0485994927585125, vz : 0.01822235994040966}
2025-11-18 17:46:13 [DEBUG] MAVLINK [VIBRATION] VIBRATION {time_usec : 515920715, vibration_x : 0.02684260904788971, vibration_y : 0.025933634489774704, vibration_z : 0.009879599325358868, clipping_0 : 0, clipping_1 : 0, clipping_2 : 0}
2025-11-18 17:46:13 [DEBUG] MAVLINK [BATTERY_STATUS] BATTERY_STATUS {id : 0, battery_function : 0, type : 0, temperature : 32767, voltages : [10960, 65535, 65535, 65535, 65535, 65535, 65535, 65535, 65535, 65535], current_battery : 2, current_consumed : 217, energy_consumed : 78, battery_remaining : 95, time_remaining : 0, charge_state : 1, voltages_ext : [0, 0, 0, 0], mode : 0, fault_bitmask : 0}
2025-11-18 17:46:13 [DEBUG] MAVLINK [MCU_STATUS] MCU_STATUS {id : 0, MCU_temperature : 4527, MCU_voltage : 3286, MCU_voltage_min : 3279, MCU_voltage_max : 3292}
2025-11-18 17:46:14 [DEBUG] MAVLINK [AHRS] AHRS {omegaIx : 0.00017126055900007486, omegaIy : -1.0812243999680504e-05, omegaIz : -0.00011595303658396006, accel_weight : 0.0, renorm_val : 0.0, error_rp : 0.018914302811026573, error_yaw : 0.004072112962603569}
2025-11-18 17:46:14 [DEBUG] MAVLINK [AHRS2] AHRS2 {roll : -0.04233144223690033, pitch : 0.00271684885956347, yaw : 2.091137409210205, altitude : 578.489990234375, lat : 174481212, lng : 783809999}
2025-11-18 17:46:14 [DEBUG] MAVLINK [ATTITUDE] ATTITUDE {time_boot_ms : 516168, roll : -0.03056187927722931, pitch : -0.003925762139260769, yaw : 2.0313377380371094, rollspeed : 0.0029040519148111343, pitchspeed : -0.0020926084835082293, yawspeed : 0.002810816280543804}
2025-11-18 17:46:14 [DEBUG] MAVLINK [GLOBAL_POSITION_INT] GLOBAL_POSITION_INT {time_boot_ms : 516168, lat : 174481218, lon : 783810025, alt : 579670, relative_alt : -32, vx : -3, vy : -5, vz : 1, hdg : 11638}
2025-11-18 17:46:14 [DEBUG] MAVLINK [VFR_HUD] VFR_HUD {airspeed : 0.06263432651758194, groundspeed : 0.060372188687324524, heading : 116, throttle : 0, alt : 579.6699829101562, climb : -0.016681041568517685}
2025-11-18 17:46:14 [DEBUG] MAVLINK [SYS_STATUS] SYS_STATUS {onboard_control_sensors_present : 1399913519, onboard_control_sensors_enabled : 1130429487, onboard_control_sensors_health : 1198586927, load : 338, voltage_battery : 10949, current_battery : 2, battery_remaining : 95, drop_rate_comm : 0, errors_comm : 0, errors_count1 : 0, errors_count2 : 0, errors_count3 : 0, errors_count4 : 0}
2025-11-18 17:46:14 [DEBUG] MAVLINK [POWER_STATUS] POWER_STATUS {Vcc : 5273, Vservo : 5030, flags : 5}
2025-11-18 17:46:14 [DEBUG] MAVLINK [MEMINFO] MEMINFO {brkval : 0, freemem : 65535, freemem32 : 563624}
2025-11-18 17:46:14 [DEBUG] MAVLINK [NAV_CONTROLLER_OUTPUT] NAV_CONTROLLER_OUTPUT {nav_roll : -0.00024786050198599696, nav_pitch : -0.0003053533146157861, nav_bearing : 116, target_bearing : 0, wp_dist : 0, alt_error : 0.0, aspd_error : 0.0, xtrack_error : 0.0}
2025-11-18 17:46:14 [DEBUG] MAVLINK [MISSION_CURRENT] MISSION_CURRENT {seq : 0, total : 0, mission_state : 1, mission_mode : 0}
2025-11-18 17:46:14 [DEBUG] MAVLINK [SERVO_OUTPUT_RAW] SERVO_OUTPUT_RAW {time_usec : 516168368, port : 0, servo1_raw : 1000, servo2_raw : 1000, servo3_raw : 1000, servo4_raw : 1000, servo5_raw : 0, servo6_raw : 0, servo7_raw : 0, servo8_raw : 0, servo9_raw : 0, servo10_raw : 0, servo11_raw : 0, servo12_raw : 0, servo13_raw : 0, servo14_raw : 0, servo15_raw : 0, servo16_raw : 0}
2025-11-18 17:46:14 [DEBUG] MAVLINK [RC_CHANNELS] RC_CHANNELS {time_boot_ms : 516168, chancount : 0, chan1_raw : 0, chan2_raw : 0, chan3_raw : 0, chan4_raw : 0, chan5_raw : 0, chan6_raw : 0, chan7_raw : 0, chan8_raw : 0, chan9_raw : 0, chan10_raw : 0, chan11_raw : 0, chan12_raw : 0, chan13_raw : 0, chan14_raw : 0, chan15_raw : 0, chan16_raw : 0, chan17_raw : 0, chan18_raw : 0, rssi : 255}
2025-11-18 17:46:14 [DEBUG] MAVLINK [RAW_IMU] RAW_IMU {time_usec : 516168398, xacc : 10, yacc : 68, zacc : -999, xgyro : 2, ygyro : -2, zgyro : 2, xmag : -156, ymag : -272, zmag : 121, id : 0, temperature : 4480}
2025-11-18 17:46:14 [DEBUG] MAVLINK [SCALED_IMU2] SCALED_IMU2 {time_boot_ms : 516168, xacc : 11, yacc : 67, zacc : -998, xgyro : 4, ygyro : -1, zgyro : 0, xmag : -167, ymag : -355, zmag : 175, temperature : 4854}
2025-11-18 17:46:14 [DEBUG] MAVLINK [SCALED_IMU3] SCALED_IMU3 {time_boot_ms : 516168, xacc : 19, yacc : 57, zacc : -1000, xgyro : 1, ygyro : -4, zgyro : 0, xmag : 0, ymag : 0, zmag : 0, temperature : 4743}
2025-11-18 17:46:14 [DEBUG] MAVLINK [SCALED_PRESSURE] SCALED_PRESSURE {time_boot_ms : 516168, press_abs : 949.1264038085938, press_diff : 0.0, temperature : 4657, temperature_press_diff : 0}
2025-11-18 17:46:14 [DEBUG] MAVLINK [SCALED_PRESSURE2] SCALED_PRESSURE2 {time_boot_ms : 516170, press_abs : 949.166748046875, press_diff : 0.0, temperature : 4355, temperature_press_diff : 0}
2025-11-18 17:46:14 [DEBUG] MAVLINK [GPS_RAW_INT] GPS_RAW_INT {time_usec : 516113000, fix_type : 4, lat : 174481212, lon : 783809999, alt : 575710, eph : 69, epv : 112, vel : 4, cog : 9919, satellites_visible : 18, alt_ellipsoid : 501615, h_acc : 1394, v_acc : 2262, vel_acc : 385, hdg_acc : 0, yaw : 0}
2025-11-18 17:46:14 [DEBUG] MAVLINK [SYSTEM_TIME] SYSTEM_TIME {time_unix_usec : 1763468174058502, time_boot_ms : 516170}
2025-11-18 17:46:14 [DEBUG] MAVLINK [WIND] WIND {direction : -180.0, speed : 0.0, speed_z : 0.0}
2025-11-18 17:46:14 [DEBUG] MAVLINK [TERRAIN_REPORT] TERRAIN_REPORT {lat : 174481218, lon : 783810024, spacing : 100, terrain_height : 579.7064819335938, current_height : -0.03649488836526871, pending : 0, loaded : 504}
2025-11-18 17:46:14 [DEBUG] MAVLINK [EKF_STATUS_REPORT] EKF_STATUS_REPORT {flags : 831, velocity_variance : 0.04951858893036842, pos_horiz_variance : 0.02790125086903572, pos_vert_variance : 0.005074032582342625, compass_variance : 0.03990863636136055, terrain_alt_variance : 0.0, airspeed_variance : 0.0}
2025-11-18 17:46:14 [DEBUG] MAVLINK [LOCAL_POSITION_NED] LOCAL_POSITION_NED {time_boot_ms : 516170, x : 1.0894495248794556, y : 0.13799050450325012, z : 1.1223515272140503, vx : -0.03087530843913555, vy : -0.05190565437078476, vz : 0.016684727743268013}
2025-11-18 17:46:14 [DEBUG] MAVLINK [VIBRATION] VIBRATION {time_usec : 516170823, vibration_x : 0.022419854998588562, vibration_y : 0.019817106425762177, vibration_z : 0.01010225061327219, clipping_0 : 0, clipping_1 : 0, clipping_2 : 0}
2025-11-18 17:46:14 [DEBUG] MAVLINK [BATTERY_STATUS] BATTERY_STATUS {id : 0, battery_function : 0, type : 0, temperature : 32767, voltages : [10949, 65535, 65535, 65535, 65535, 65535, 65535, 65535, 65535, 65535], current_battery : 2, current_consumed : 217, energy_consumed : 78, battery_remaining : 95, time_remaining : 0, charge_state : 1, voltages_ext : [0, 0, 0, 0], mode : 0, fault_bitmask : 0}
2025-11-18 17:46:14 [DEBUG] MAVLINK [MCU_STATUS] MCU_STATUS {id : 0, MCU_temperature : 4523, MCU_voltage : 3286, MCU_voltage_min : 3278, MCU_voltage_max : 3293}
2025-11-18 17:46:14 [DEBUG] MAVLINK [HEARTBEAT] HEARTBEAT {type : 27, autopilot : 8, base_mode : 4, custom_mode : 0, system_status : 4, mavlink_version : 3}
2025-11-18 17:46:14 [DEBUG] MAVLINK [AHRS] AHRS {omegaIx : 0.00016778724966570735, omegaIy : -2.78367424471071e-05, omegaIz : -0.00010818179725902155, accel_weight : 0.0, renorm_val : 0.0, error_rp : 0.028863148763775826, error_yaw : 0.0032787853851914406}
2025-11-18 17:46:14 [DEBUG] MAVLINK [AHRS2] AHRS2 {roll : -0.042616818100214005, pitch : 0.0019223201088607311, yaw : 2.091886520385742, altitude : 578.239990234375, lat : 174481209, lng : 783809997}
2025-11-18 17:46:14 [DEBUG] MAVLINK [ATTITUDE] ATTITUDE {time_boot_ms : 516418, roll : -0.030704986304044724, pitch : -0.0039215898141264915, yaw : 2.032182455062866, rollspeed : -0.00334975216537714, pitchspeed : 0.0024333042092621326, yawspeed : 0.00026505187270231545}
2025-11-18 17:46:14 [DEBUG] MAVLINK [GLOBAL_POSITION_INT] GLOBAL_POSITION_INT {time_boot_ms : 516418, lat : 174481217, lon : 783810022, alt : 579680, relative_alt : -21, vx : -3, vy : -5, vz : 1, hdg : 11643}
2025-11-18 17:46:14 [DEBUG] MAVLINK [VFR_HUD] VFR_HUD {airspeed : 0.06265915930271149, groundspeed : 0.06155272200703621, heading : 116, throttle : 0, alt : 579.6799926757812, climb : -0.011723171919584274}
2025-11-18 17:46:14 [DEBUG] MAVLINK [SYS_STATUS] SYS_STATUS {onboard_control_sensors_present : 1399913519, onboard_control_sensors_enabled : 1130429487, onboard_control_sensors_health : 1198586927, load : 324, voltage_battery : 10956, current_battery : 2, battery_remaining : 95, drop_rate_comm : 0, errors_comm : 0, errors_count1 : 0, errors_count2 : 0, errors_count3 : 0, errors_count4 : 0}
2025-11-18 17:46:14 [DEBUG] MAVLINK [POWER_STATUS] POWER_STATUS {Vcc : 5261, Vservo : 5030, flags : 5}
2025-11-18 17:46:14 [DEBUG] MAVLINK [MEMINFO] MEMINFO {brkval : 0, freemem : 65535, freemem32 : 563624}
2025-11-18 17:46:14 [DEBUG] MAVLINK [NAV_CONTROLLER_OUTPUT] NAV_CONTROLLER_OUTPUT {nav_roll : -0.00024786050198599696, nav_pitch : -0.0003053533146157861, nav_bearing : 116, target_bearing : 0, wp_dist : 0, alt_error : 0.0, aspd_error : 0.0, xtrack_error : 0.0}
2025-11-18 17:46:14 [DEBUG] MAVLINK [MISSION_CURRENT] MISSION_CURRENT {seq : 0, total : 0, mission_state : 1, mission_mode : 0}
2025-11-18 17:46:14 [DEBUG] MAVLINK [SERVO_OUTPUT_RAW] SERVO_OUTPUT_RAW {time_usec : 516418414, port : 0, servo1_raw : 1000, servo2_raw : 1000, servo3_raw : 1000, servo4_raw : 1000, servo5_raw : 0, servo6_raw : 0, servo7_raw : 0, servo8_raw : 0, servo9_raw : 0, servo10_raw : 0, servo11_raw : 0, servo12_raw : 0, servo13_raw : 0, servo14_raw : 0, servo15_raw : 0, servo16_raw : 0}
2025-11-18 17:46:14 [DEBUG] MAVLINK [RC_CHANNELS] RC_CHANNELS {time_boot_ms : 516420, chancount : 0, chan1_raw : 0, chan2_raw : 0, chan3_raw : 0, chan4_raw : 0, chan5_raw : 0, chan6_raw : 0, chan7_raw : 0, chan8_raw : 0, chan9_raw : 0, chan10_raw : 0, chan11_raw : 0, chan12_raw : 0, chan13_raw : 0, chan14_raw : 0, chan15_raw : 0, chan16_raw : 0, chan17_raw : 0, chan18_raw : 0, rssi : 255}
2025-11-18 17:46:14 [DEBUG] MAVLINK [RAW_IMU] RAW_IMU {time_usec : 516420658, xacc : 11, yacc : 68, zacc : -999, xgyro : -3, ygyro : 2, zgyro : 0, xmag : -157, ymag : -271, zmag : 121, id : 0, temperature : 4480}
2025-11-18 17:46:14 [DEBUG] MAVLINK [SCALED_IMU2] SCALED_IMU2 {time_boot_ms : 516420, xacc : 13, yacc : 64, zacc : -997, xgyro : 0, ygyro : 4, zgyro : -2, xmag : -165, ymag : -356, zmag : 160, temperature : 4854}
2025-11-18 17:46:14 [DEBUG] MAVLINK [SCALED_IMU3] SCALED_IMU3 {time_boot_ms : 516420, xacc : 21, yacc : 59, zacc : -1000, xgyro : -3, ygyro : 2, zgyro : -3, xmag : 0, ymag : 0, zmag : 0, temperature : 4743}
2025-11-18 17:46:14 [DEBUG] MAVLINK [SCALED_PRESSURE] SCALED_PRESSURE {time_boot_ms : 516420, press_abs : 949.1546020507812, press_diff : 0.0, temperature : 4658, temperature_press_diff : 0}
2025-11-18 17:46:14 [DEBUG] MAVLINK [SCALED_PRESSURE2] SCALED_PRESSURE2 {time_boot_ms : 516420, press_abs : 949.1857299804688, press_diff : 0.0, temperature : 4356, temperature_press_diff : 0}
2025-11-18 17:46:14 [DEBUG] MAVLINK [GPS_RAW_INT] GPS_RAW_INT {time_usec : 516313000, fix_type : 4, lat : 174481210, lon : 783809996, alt : 575640, eph : 69, epv : 112, vel : 10, cog : 9919, satellites_visible : 18, alt_ellipsoid : 501545, h_acc : 1394, v_acc : 2257, vel_acc : 355, hdg_acc : 0, yaw : 0}
2025-11-18 17:46:14 [DEBUG] MAVLINK [SYSTEM_TIME] SYSTEM_TIME {time_unix_usec : 1763468174308588, time_boot_ms : 516420}
2025-11-18 17:46:14 [DEBUG] MAVLINK [WIND] WIND {direction : -180.0, speed : 0.0, speed_z : 0.0}
2025-11-18 17:46:14 [DEBUG] MAVLINK [TERRAIN_REPORT] TERRAIN_REPORT {lat : 174481217, lon : 783810022, spacing : 100, terrain_height : 579.7061157226562, current_height : -0.026128679513931274, pending : 0, loaded : 504}
2025-11-18 17:46:14 [DEBUG] MAVLINK [EKF_STATUS_REPORT] EKF_STATUS_REPORT {flags : 831, velocity_variance : 0.059987083077430725, pos_horiz_variance : 0.029092369601130486, pos_vert_variance : 0.014859427697956562, compass_variance : 0.04006992653012276, terrain_alt_variance : 0.0, airspeed_variance : 0.0}
2025-11-18 17:46:14 [DEBUG] MAVLINK [LOCAL_POSITION_NED] LOCAL_POSITION_NED {time_boot_ms : 516420, x : 1.0764487981796265, y : 0.1134549081325531, z : 1.1114753484725952, vx : -0.03341399505734444, vy : -0.051666926592588425, vz : 0.011728661134839058}
2025-11-18 17:46:14 [DEBUG] MAVLINK [VIBRATION] VIBRATION {time_usec : 516420893, vibration_x : 0.02311703935265541, vibration_y : 0.02672034315764904, vibration_z : 0.009697728790342808, clipping_0 : 0, clipping_1 : 0, clipping_2 : 0}
2025-11-18 17:46:14 [DEBUG] MAVLINK [BATTERY_STATUS] BATTERY_STATUS {id : 0, battery_function : 0, type : 0, temperature : 32767, voltages : [10956, 65535, 65535, 65535, 65535, 65535, 65535, 65535, 65535, 65535], current_battery : 2, current_consumed : 217, energy_consumed : 78, battery_remaining : 95, time_remaining : 0, charge_state : 1, voltages_ext : [0, 0, 0, 0], mode : 0, fault_bitmask : 0}
2025-11-18 17:46:14 [DEBUG] MAVLINK [MCU_STATUS] MCU_STATUS {id : 0, MCU_temperature : 4529, MCU_voltage : 3286, MCU_voltage_min : 3279, MCU_voltage_max : 3292}
2025-11-18 17:46:14 [INFO] Waiting for motors to arm...
2025-11-18 17:46:14 [DEBUG] MAVLINK [AHRS] AHRS {omegaIx : 0.00015276730118785053, omegaIy : -3.1594136089552194e-05, omegaIz : -9.551702532917261e-05, accel_weight : 0.0, renorm_val : 0.0, error_rp : 0.037061963230371475, error_yaw : 0.0028113326989114285}
2025-11-18 17:46:14 [DEBUG] MAVLINK [AHRS2] AHRS2 {roll : -0.04364655911922455, pitch : 0.0015829692129045725, yaw : 2.092616558074951, altitude : 578.3399658203125, lat : 174481210, lng : 783809997}
2025-11-18 17:46:14 [DEBUG] MAVLINK [ATTITUDE] ATTITUDE {time_boot_ms : 516668, roll : -0.0308760404586792, pitch : -0.00423041358590126, yaw : 2.033012866973877, rollspeed : 0.0005743613000959158, pitchspeed : -0.0011739811161532998, yawspeed : 0.00017636801931075752}
2025-11-18 17:46:14 [DEBUG] MAVLINK [GLOBAL_POSITION_INT] GLOBAL_POSITION_INT {time_boot_ms : 516668, lat : 174481216, lon : 783810021, alt : 579690, relative_alt : -13, vx : -3, vy : -4, vz : 0, hdg : 11648}
2025-11-18 17:46:14 [DEBUG] MAVLINK [VFR_HUD] VFR_HUD {airspeed : 0.05543334037065506, groundspeed : 0.054740071296691895, heading : 116, throttle : 0, alt : 579.6900024414062, climb : -0.008739568293094635}
2025-11-18 17:46:14 [DEBUG] MAVLINK [SYS_STATUS] SYS_STATUS {onboard_control_sensors_present : 1399913519, onboard_control_sensors_enabled : 1130429487, onboard_control_sensors_health : 1198586927, load : 320, voltage_battery : 10954, current_battery : 2, battery_remaining : 95, drop_rate_comm : 0, errors_comm : 0, errors_count1 : 0, errors_count2 : 0, errors_count3 : 0, errors_count4 : 0}
2025-11-18 17:46:14 [DEBUG] MAVLINK [POWER_STATUS] POWER_STATUS {Vcc : 5287, Vservo : 5035, flags : 5}
2025-11-18 17:46:14 [DEBUG] MAVLINK [MEMINFO] MEMINFO {brkval : 0, freemem : 65535, freemem32 : 563624}
2025-11-18 17:46:14 [DEBUG] MAVLINK [NAV_CONTROLLER_OUTPUT] NAV_CONTROLLER_OUTPUT {nav_roll : -0.0002478606766089797, nav_pitch : -0.00030535325640812516, nav_bearing : 116, target_bearing : 0, wp_dist : 0, alt_error : 0.0, aspd_error : 0.0, xtrack_error : 0.0}
2025-11-18 17:46:14 [DEBUG] MAVLINK [MISSION_CURRENT] MISSION_CURRENT {seq : 0, total : 0, mission_state : 1, mission_mode : 0}
2025-11-18 17:46:14 [DEBUG] MAVLINK [SERVO_OUTPUT_RAW] SERVO_OUTPUT_RAW {time_usec : 516668310, port : 0, servo1_raw : 1057, servo2_raw : 1057, servo3_raw : 1057, servo4_raw : 1057, servo5_raw : 0, servo6_raw : 0, servo7_raw : 0, servo8_raw : 0, servo9_raw : 0, servo10_raw : 0, servo11_raw : 0, servo12_raw : 0, servo13_raw : 0, servo14_raw : 0, servo15_raw : 0, servo16_raw : 0}
2025-11-18 17:46:14 [DEBUG] MAVLINK [RC_CHANNELS] RC_CHANNELS {time_boot_ms : 516668, chancount : 0, chan1_raw : 0, chan2_raw : 0, chan3_raw : 0, chan4_raw : 0, chan5_raw : 0, chan6_raw : 0, chan7_raw : 0, chan8_raw : 0, chan9_raw : 0, chan10_raw : 0, chan11_raw : 0, chan12_raw : 0, chan13_raw : 0, chan14_raw : 0, chan15_raw : 0, chan16_raw : 0, chan17_raw : 0, chan18_raw : 0, rssi : 255}
2025-11-18 17:46:14 [DEBUG] MAVLINK [RAW_IMU] RAW_IMU {time_usec : 516668341, xacc : 14, yacc : 72, zacc : -998, xgyro : 0, ygyro : -1, zgyro : 0, xmag : -157, ymag : -272, zmag : 121, id : 0, temperature : 4480}
2025-11-18 17:46:14 [DEBUG] MAVLINK [SCALED_IMU2] SCALED_IMU2 {time_boot_ms : 516668, xacc : 17, yacc : 69, zacc : -997, xgyro : 1, ygyro : -1, zgyro : -2, xmag : -151, ymag : -369, zmag : 149, temperature : 4855}
2025-11-18 17:46:14 [DEBUG] MAVLINK [SCALED_IMU3] SCALED_IMU3 {time_boot_ms : 516670, xacc : 23, yacc : 60, zacc : -1000, xgyro : 0, ygyro : 0, zgyro : -1, xmag : 0, ymag : 0, zmag : 0, temperature : 4744}
2025-11-18 17:46:14 [DEBUG] MAVLINK [SCALED_PRESSURE] SCALED_PRESSURE {time_boot_ms : 516670, press_abs : 949.143798828125, press_diff : 0.0, temperature : 4658, temperature_press_diff : 0}
2025-11-18 17:46:14 [DEBUG] MAVLINK [SCALED_PRESSURE2] SCALED_PRESSURE2 {time_boot_ms : 516670, press_abs : 949.171875, press_diff : 0.0, temperature : 4355, temperature_press_diff : 0}
2025-11-18 17:46:14 [DEBUG] MAVLINK [GPS_RAW_INT] GPS_RAW_INT {time_usec : 516513000, fix_type : 4, lat : 174481209, lon : 783809996, alt : 575590, eph : 69, epv : 112, vel : 8, cog : 9919, satellites_visible : 18, alt_ellipsoid : 501495, h_acc : 1393, v_acc : 2253, vel_acc : 383, hdg_acc : 0, yaw : 0}
2025-11-18 17:46:14 [DEBUG] MAVLINK [SYSTEM_TIME] SYSTEM_TIME {time_unix_usec : 1763468174558582, time_boot_ms : 516670}
2025-11-18 17:46:14 [DEBUG] MAVLINK [WIND] WIND {direction : -180.0, speed : 0.0, speed_z : 0.0}
2025-11-18 17:46:14 [DEBUG] MAVLINK [TERRAIN_REPORT] TERRAIN_REPORT {lat : 174481216, lon : 783810021, spacing : 100, terrain_height : 579.7058715820312, current_height : -0.015884539112448692, pending : 0, loaded : 504}
2025-11-18 17:46:14 [DEBUG] MAVLINK [EKF_STATUS_REPORT] EKF_STATUS_REPORT {flags : 831, velocity_variance : 0.05063844099640846, pos_horiz_variance : 0.02892961911857128, pos_vert_variance : 0.01367452647536993, compass_variance : 0.03986638784408569, terrain_alt_variance : 0.0, airspeed_variance : 0.0}
2025-11-18 17:46:14 [DEBUG] MAVLINK [LOCAL_POSITION_NED] LOCAL_POSITION_NED {time_boot_ms : 516670, x : 1.0674957036972046, y : 0.1017751470208168, z : 1.1038529872894287, vx : -0.0321393720805645, vy : -0.04432566091418266, vz : 0.008730771951377392}
2025-11-18 17:46:14 [DEBUG] MAVLINK [VIBRATION] VIBRATION {time_usec : 516670854, vibration_x : 0.017491336911916733, vibration_y : 0.017932917922735214, vibration_z : 0.008787110447883606, clipping_0 : 0, clipping_1 : 0, clipping_2 : 0}
2025-11-18 17:46:14 [DEBUG] MAVLINK [BATTERY_STATUS] BATTERY_STATUS {id : 0, battery_function : 0, type : 0, temperature : 32767, voltages : [10954, 65535, 65535, 65535, 65535, 65535, 65535, 65535, 65535, 65535], current_battery : 2, current_consumed : 217, energy_consumed : 78, battery_remaining : 95, time_remaining : 0, charge_state : 1, voltages_ext : [0, 0, 0, 0], mode : 0, fault_bitmask : 0}
2025-11-18 17:46:14 [DEBUG] MAVLINK [MCU_STATUS] MCU_STATUS {id : 0, MCU_temperature : 4527, MCU_voltage : 3286, MCU_voltage_min : 3278, MCU_voltage_max : 3296}
2025-11-18 17:46:14 [DEBUG] MAVLINK [HEARTBEAT] HEARTBEAT {type : 6, autopilot : 8, base_mode : 192, custom_mode : 0, system_status : 4, mavlink_version : 3}
2025-11-18 17:46:14 [DEBUG] MAVLINK [HEARTBEAT] HEARTBEAT {type : 2, autopilot : 3, base_mode : 217, custom_mode : 4, system_status : 5, mavlink_version : 3}
2025-11-18 17:46:14 [DEBUG] MAVLINK [AHRS] AHRS {omegaIx : 0.00015092552348505706, omegaIy : -3.4702421544352546e-05, omegaIz : -9.348848834633827e-05, accel_weight : 0.0, renorm_val : 0.0, error_rp : 0.0394459031522274, error_yaw : 0.058124467730522156}
2025-11-18 17:46:14 [DEBUG] MAVLINK [AHRS2] AHRS2 {roll : -0.04272281005978584, pitch : 0.001949855126440525, yaw : 2.0895252227783203, altitude : 578.6699829101562, lat : 174481209, lng : 783809994}
2025-11-18 17:46:14 [DEBUG] MAVLINK [ATTITUDE] ATTITUDE {time_boot_ms : 516918, roll : -0.031153935939073563, pitch : -0.004414252936840057, yaw : 2.0313305854797363, rollspeed : -0.003962998744100332, pitchspeed : -0.0014924240531399846, yawspeed : 0.028276506811380386}
2025-11-18 17:46:14 [DEBUG] MAVLINK [GLOBAL_POSITION_INT] GLOBAL_POSITION_INT {time_boot_ms : 516918, lat : 174481216, lon : 783810020, alt : 579700, relative_alt : -9, vx : -2, vy : -3, vz : 0, hdg : 11638}
2025-11-18 17:46:14 [DEBUG] MAVLINK [VFR_HUD] VFR_HUD {airspeed : 0.04938950017094612, groundspeed : 0.04886506870388985, heading : 116, throttle : 0, alt : 579.7000122070312, climb : -0.0071782744489610195}
2025-11-18 17:46:14 [DEBUG] MAVLINK [SYS_STATUS] SYS_STATUS {onboard_control_sensors_present : 1399913519, onboard_control_sensors_enabled : 1130429487, onboard_control_sensors_health : 1198586927, load : 313, voltage_battery : 10903, current_battery : 1, battery_remaining : 95, drop_rate_comm : 0, errors_comm : 0, errors_count1 : 0, errors_count2 : 0, errors_count3 : 0, errors_count4 : 0}
2025-11-18 17:46:14 [DEBUG] MAVLINK [POWER_STATUS] POWER_STATUS {Vcc : 5282, Vservo : 5021, flags : 5}
2025-11-18 17:46:14 [DEBUG] MAVLINK [MEMINFO] MEMINFO {brkval : 0, freemem : 65535, freemem32 : 572544}
2025-11-18 17:46:14 [DEBUG] MAVLINK [NAV_CONTROLLER_OUTPUT] NAV_CONTROLLER_OUTPUT {nav_roll : -0.0002478606766089797, nav_pitch : -0.00030535313999280334, nav_bearing : 116, target_bearing : 0, wp_dist : 0, alt_error : 0.0, aspd_error : 0.0, xtrack_error : 0.0}
2025-11-18 17:46:14 [DEBUG] MAVLINK [MISSION_CURRENT] MISSION_CURRENT {seq : 0, total : 0, mission_state : 1, mission_mode : 0}
2025-11-18 17:46:14 [DEBUG] MAVLINK [SERVO_OUTPUT_RAW] SERVO_OUTPUT_RAW {time_usec : 516918393, port : 0, servo1_raw : 1100, servo2_raw : 1100, servo3_raw : 1100, servo4_raw : 1100, servo5_raw : 0, servo6_raw : 0, servo7_raw : 0, servo8_raw : 0, servo9_raw : 0, servo10_raw : 0, servo11_raw : 0, servo12_raw : 0, servo13_raw : 0, servo14_raw : 0, servo15_raw : 0, servo16_raw : 0}
