2025-11-18 17:43:03 [INFO] Logger initialized.
2025-11-18 17:43:03 [INFO] Log file: logs/drone_log_2025-11-18_17-43-03.log
2025-11-18 17:43:15 [INFO] Connected to FC on /dev/ttyACM0@115200
2025-11-18 17:43:15 [INFO] Checking pre-arm conditions...
2025-11-18 17:43:15 [INFO] Saved HOME: lat=17.4481074, lon=78.3809846, alt=-0.86
2025-11-18 17:43:15 [INFO] Waiting for GUIDED...
2025-11-18 17:43:15 [DEBUG] MAVLINK [COMMAND_ACK] COMMAND_ACK {command : 176, result : 0, progress : 0, result_param2 : 0, target_system : 255, target_component : 0}
2025-11-18 17:43:15 [DEBUG] MAVLINK [HEARTBEAT] HEARTBEAT {type : 2, autopilot : 3, base_mode : 89, custom_mode : 4, system_status : 3, mavlink_version : 3}
2025-11-18 17:43:15 [DEBUG] MAVLINK [HEARTBEAT] HEARTBEAT {type : 6, autopilot : 8, base_mode : 192, custom_mode : 0, system_status : 4, mavlink_version : 3}
2025-11-18 17:43:15 [DEBUG] MAVLINK [AHRS] AHRS {omegaIx : 0.00025253204512409866, omegaIy : -6.249375292100012e-05, omegaIz : -0.0010151559254154563, accel_weight : 0.0, renorm_val : 0.0, error_rp : 0.0012949982192367315, error_yaw : 0.00865249428898096}
2025-11-18 17:43:15 [DEBUG] MAVLINK [AHRS2] AHRS2 {roll : -0.05478110909461975, pitch : -0.0025194226764142513, yaw : 1.9245331287384033, altitude : 579.7999877929688, lat : 174481083, lng : 783809851}
2025-11-18 17:43:15 [DEBUG] MAVLINK [ATTITUDE] ATTITUDE {time_boot_ms : 337800, roll : -0.05337917432188988, pitch : -0.0025936132296919823, yaw : 1.9018824100494385, rollspeed : -0.00013777936692349613, pitchspeed : -0.00019392585090827197, yawspeed : 8.633907418698072e-05}
2025-11-18 17:43:15 [DEBUG] MAVLINK [GLOBAL_POSITION_INT] GLOBAL_POSITION_INT {time_boot_ms : 337800, lat : 174481074, lon : 783809846, alt : 579930, relative_alt : -860, vx : 0, vy : 0, vz : -1, hdg : 10896}
2025-11-18 17:43:15 [DEBUG] MAVLINK [VFR_HUD] VFR_HUD {airspeed : 0.018858367577195168, groundspeed : 0.00382985663600266, heading : 108, throttle : 0, alt : 579.9299926757812, climb : 0.018465377390384674}
2025-11-18 17:43:15 [DEBUG] MAVLINK [SYS_STATUS] SYS_STATUS {onboard_control_sensors_present : 1399913519, onboard_control_sensors_enabled : 1113652271, onboard_control_sensors_health : 1198586895, load : 296, voltage_battery : 11033, current_battery : 1, battery_remaining : 99, drop_rate_comm : 0, errors_comm : 0, errors_count1 : 0, errors_count2 : 0, errors_count3 : 0, errors_count4 : 0}
2025-11-18 17:43:15 [DEBUG] MAVLINK [POWER_STATUS] POWER_STATUS {Vcc : 5271, Vservo : 5028, flags : 5}
2025-11-18 17:43:15 [DEBUG] MAVLINK [MEMINFO] MEMINFO {brkval : 0, freemem : 65535, freemem32 : 573504}
2025-11-18 17:43:15 [DEBUG] MAVLINK [NAV_CONTROLLER_OUTPUT] NAV_CONTROLLER_OUTPUT {nav_roll : -0.00019635701028164476, nav_pitch : 0.00034649690496735275, nav_bearing : 109, target_bearing : 0, wp_dist : 0, alt_error : 0.0, aspd_error : 0.0, xtrack_error : 0.0}
2025-11-18 17:43:15 [DEBUG] MAVLINK [MISSION_CURRENT] MISSION_CURRENT {seq : 0, total : 0, mission_state : 1, mission_mode : 0}
2025-11-18 17:43:15 [DEBUG] MAVLINK [SERVO_OUTPUT_RAW] SERVO_OUTPUT_RAW {time_usec : 337800838, port : 0, servo1_raw : 1000, servo2_raw : 1000, servo3_raw : 1000, servo4_raw : 1000, servo5_raw : 0, servo6_raw : 0, servo7_raw : 0, servo8_raw : 0, servo9_raw : 0, servo10_raw : 0, servo11_raw : 0, servo12_raw : 0, servo13_raw : 0, servo14_raw : 0, servo15_raw : 0, servo16_raw : 0}
2025-11-18 17:43:15 [DEBUG] MAVLINK [RC_CHANNELS] RC_CHANNELS {time_boot_ms : 337800, chancount : 0, chan1_raw : 0, chan2_raw : 0, chan3_raw : 0, chan4_raw : 0, chan5_raw : 0, chan6_raw : 0, chan7_raw : 0, chan8_raw : 0, chan9_raw : 0, chan10_raw : 0, chan11_raw : 0, chan12_raw : 0, chan13_raw : 0, chan14_raw : 0, chan15_raw : 0, chan16_raw : 0, chan17_raw : 0, chan18_raw : 0, rssi : 255}
2025-11-18 17:43:15 [DEBUG] MAVLINK [RAW_IMU] RAW_IMU {time_usec : 337800869, xacc : 11, yacc : 78, zacc : -998, xgyro : 0, ygyro : 0, zgyro : 1, xmag : -107, ymag : -294, zmag : 101, id : 0, temperature : 4480}
2025-11-18 17:43:15 [DEBUG] MAVLINK [SCALED_IMU2] SCALED_IMU2 {time_boot_ms : 337803, xacc : 13, yacc : 76, zacc : -998, xgyro : 0, ygyro : 0, zgyro : 0, xmag : -158, ymag : -367, zmag : 164, temperature : 4854}
2025-11-18 17:43:15 [DEBUG] MAVLINK [SCALED_IMU3] SCALED_IMU3 {time_boot_ms : 337803, xacc : 21, yacc : 68, zacc : -1000, xgyro : -3, ygyro : 0, zgyro : 0, xmag : 0, ymag : 0, zmag : 0, temperature : 4759}
2025-11-18 17:43:15 [DEBUG] MAVLINK [SCALED_PRESSURE] SCALED_PRESSURE {time_boot_ms : 337803, press_abs : 949.0565185546875, press_diff : 0.0, temperature : 4654, temperature_press_diff : 0}
2025-11-18 17:43:15 [DEBUG] MAVLINK [SCALED_PRESSURE2] SCALED_PRESSURE2 {time_boot_ms : 337803, press_abs : 949.17578125, press_diff : 0.0, temperature : 4375, temperature_press_diff : 0}
2025-11-18 17:43:15 [DEBUG] MAVLINK [GPS_RAW_INT] GPS_RAW_INT {time_usec : 337792000, fix_type : 4, lat : 174481084, lon : 783809850, alt : 573120, eph : 77, epv : 138, vel : 2, cog : 18517, satellites_visible : 17, alt_ellipsoid : 499025, h_acc : 1259, v_acc : 1985, vel_acc : 282, hdg_acc : 0, yaw : 0}
2025-11-18 17:43:15 [DEBUG] MAVLINK [SYSTEM_TIME] SYSTEM_TIME {time_unix_usec : 1763467995691546, time_boot_ms : 337803}
2025-11-18 17:43:15 [DEBUG] MAVLINK [WIND] WIND {direction : -180.0, speed : 0.0, speed_z : 0.0}
2025-11-18 17:43:15 [DEBUG] MAVLINK [TERRAIN_REPORT] TERRAIN_REPORT {lat : 174481074, lon : 783809846, spacing : 100, terrain_height : 579.991943359375, current_height : -0.06195632368326187, pending : 0, loaded : 504}
2025-11-18 17:43:15 [DEBUG] MAVLINK [EKF_STATUS_REPORT] EKF_STATUS_REPORT {flags : 831, velocity_variance : 0.010813860222697258, pos_horiz_variance : 0.01174134947359562, pos_vert_variance : 0.01250167191028595, compass_variance : 0.006938406266272068, terrain_alt_variance : 0.0, airspeed_variance : 0.0}
2025-11-18 17:43:15 [DEBUG] MAVLINK [LOCAL_POSITION_NED] LOCAL_POSITION_NED {time_boot_ms : 337803, x : -0.503624677658081, y : -1.7422852516174316, z : 0.8605978488922119, vx : 0.003256692783907056, vy : 0.0020267562940716743, vz : -0.018376976251602173}
2025-11-18 17:43:15 [DEBUG] MAVLINK [VIBRATION] VIBRATION {time_usec : 337803870, vibration_x : 0.00791354849934578, vibration_y : 0.007520007900893688, vibration_z : 0.009199760854244232, clipping_0 : 0, clipping_1 : 0, clipping_2 : 0}
2025-11-18 17:43:15 [DEBUG] MAVLINK [BATTERY_STATUS] BATTERY_STATUS {id : 0, battery_function : 0, type : 0, temperature : 32767, voltages : [11033, 65535, 65535, 65535, 65535, 65535, 65535, 65535, 65535, 65535], current_battery : 1, current_consumed : 1, energy_consumed : 0, battery_remaining : 99, time_remaining : 0, charge_state : 1, voltages_ext : [0, 0, 0, 0], mode : 0, fault_bitmask : 0}
2025-11-18 17:43:15 [DEBUG] MAVLINK [MCU_STATUS] MCU_STATUS {id : 0, MCU_temperature : 4531, MCU_voltage : 3286, MCU_voltage_min : 3280, MCU_voltage_max : 3292}
2025-11-18 17:43:16 [DEBUG] MAVLINK [AHRS] AHRS {omegaIx : 0.00025455455761402845, omegaIy : -5.707725722459145e-05, omegaIz : -0.001010776381008327, accel_weight : 0.0, renorm_val : 0.0, error_rp : 0.0013072402216494083, error_yaw : 0.007259245030581951}
2025-11-18 17:43:16 [DEBUG] MAVLINK [AHRS2] AHRS2 {roll : -0.05480944737792015, pitch : -0.002591656520962715, yaw : 1.9246898889541626, altitude : 579.8999633789062, lat : 174481084, lng : 783809850}
2025-11-18 17:43:16 [DEBUG] MAVLINK [ATTITUDE] ATTITUDE {time_boot_ms : 338050, roll : -0.053327735513448715, pitch : -0.0025067338719964027, yaw : 1.9020130634307861, rollspeed : 0.0008150874054990709, pitchspeed : -0.00047405410441569984, yawspeed : -0.00028964661760255694}
2025-11-18 17:43:16 [DEBUG] MAVLINK [GLOBAL_POSITION_INT] GLOBAL_POSITION_INT {time_boot_ms : 338050, lat : 174481075, lon : 783809846, alt : 579940, relative_alt : -856, vx : 0, vy : 0, vz : -1, hdg : 10897}
2025-11-18 17:43:16 [DEBUG] MAVLINK [VFR_HUD] VFR_HUD {airspeed : 0.01913878507912159, groundspeed : 0.004645679146051407, heading : 108, throttle : 0, alt : 579.9400024414062, climb : 0.01856638863682747}
2025-11-18 17:43:16 [DEBUG] MAVLINK [SYS_STATUS] SYS_STATUS {onboard_control_sensors_present : 1399913519, onboard_control_sensors_enabled : 1113652271, onboard_control_sensors_health : 1198586895, load : 304, voltage_battery : 11031, current_battery : 2, battery_remaining : 99, drop_rate_comm : 0, errors_comm : 0, errors_count1 : 0, errors_count2 : 0, errors_count3 : 0, errors_count4 : 0}
2025-11-18 17:43:16 [DEBUG] MAVLINK [POWER_STATUS] POWER_STATUS {Vcc : 5295, Vservo : 5038, flags : 5}
2025-11-18 17:43:16 [DEBUG] MAVLINK [MEMINFO] MEMINFO {brkval : 0, freemem : 65535, freemem32 : 573504}
2025-11-18 17:43:16 [DEBUG] MAVLINK [NAV_CONTROLLER_OUTPUT] NAV_CONTROLLER_OUTPUT {nav_roll : -0.00019635679200291634, nav_pitch : 0.00034649684675969183, nav_bearing : 109, target_bearing : 0, wp_dist : 0, alt_error : 0.0, aspd_error : 0.0, xtrack_error : 0.0}
2025-11-18 17:43:16 [DEBUG] MAVLINK [MISSION_CURRENT] MISSION_CURRENT {seq : 0, total : 0, mission_state : 1, mission_mode : 0}
2025-11-18 17:43:16 [DEBUG] MAVLINK [SERVO_OUTPUT_RAW] SERVO_OUTPUT_RAW {time_usec : 338050589, port : 0, servo1_raw : 1000, servo2_raw : 1000, servo3_raw : 1000, servo4_raw : 1000, servo5_raw : 0, servo6_raw : 0, servo7_raw : 0, servo8_raw : 0, servo9_raw : 0, servo10_raw : 0, servo11_raw : 0, servo12_raw : 0, servo13_raw : 0, servo14_raw : 0, servo15_raw : 0, servo16_raw : 0}
2025-11-18 17:43:16 [DEBUG] MAVLINK [RC_CHANNELS] RC_CHANNELS {time_boot_ms : 338050, chancount : 0, chan1_raw : 0, chan2_raw : 0, chan3_raw : 0, chan4_raw : 0, chan5_raw : 0, chan6_raw : 0, chan7_raw : 0, chan8_raw : 0, chan9_raw : 0, chan10_raw : 0, chan11_raw : 0, chan12_raw : 0, chan13_raw : 0, chan14_raw : 0, chan15_raw : 0, chan16_raw : 0, chan17_raw : 0, chan18_raw : 0, rssi : 255}
2025-11-18 17:43:16 [DEBUG] MAVLINK [RAW_IMU] RAW_IMU {time_usec : 338050650, xacc : 11, yacc : 78, zacc : -998, xgyro : 0, ygyro : 0, zgyro : 0, xmag : -108, ymag : -294, zmag : 101, id : 0, temperature : 4480}
2025-11-18 17:43:16 [DEBUG] MAVLINK [SCALED_IMU2] SCALED_IMU2 {time_boot_ms : 338050, xacc : 14, yacc : 73, zacc : -999, xgyro : 0, ygyro : 0, zgyro : -1, xmag : -151, ymag : -383, zmag : 150, temperature : 4854}
2025-11-18 17:43:16 [DEBUG] MAVLINK [SCALED_IMU3] SCALED_IMU3 {time_boot_ms : 338053, xacc : 21, yacc : 68, zacc : -1001, xgyro : -2, ygyro : 1, zgyro : -1, xmag : 0, ymag : 0, zmag : 0, temperature : 4760}
2025-11-18 17:43:16 [DEBUG] MAVLINK [SCALED_PRESSURE] SCALED_PRESSURE {time_boot_ms : 338053, press_abs : 949.0894165039062, press_diff : 0.0, temperature : 4654, temperature_press_diff : 0}
2025-11-18 17:43:16 [DEBUG] MAVLINK [SCALED_PRESSURE2] SCALED_PRESSURE2 {time_boot_ms : 338053, press_abs : 949.1798706054688, press_diff : 0.0, temperature : 4375, temperature_press_diff : 0}
2025-11-18 17:43:16 [DEBUG] MAVLINK [GPS_RAW_INT] GPS_RAW_INT {time_usec : 337792000, fix_type : 4, lat : 174481084, lon : 783809850, alt : 573120, eph : 77, epv : 138, vel : 2, cog : 18517, satellites_visible : 17, alt_ellipsoid : 499025, h_acc : 1259, v_acc : 1985, vel_acc : 282, hdg_acc : 0, yaw : 0}
2025-11-18 17:43:16 [DEBUG] MAVLINK [SYSTEM_TIME] SYSTEM_TIME {time_unix_usec : 1763467995941032, time_boot_ms : 338053}
2025-11-18 17:43:16 [DEBUG] MAVLINK [WIND] WIND {direction : -180.0, speed : 0.0, speed_z : 0.0}
2025-11-18 17:43:16 [DEBUG] MAVLINK [TERRAIN_REPORT] TERRAIN_REPORT {lat : 174481075, lon : 783809846, spacing : 100, terrain_height : 579.9920043945312, current_height : -0.05201735720038414, pending : 0, loaded : 504}
2025-11-18 17:43:16 [DEBUG] MAVLINK [EKF_STATUS_REPORT] EKF_STATUS_REPORT {flags : 831, velocity_variance : 0.010813860222697258, pos_horiz_variance : 0.01174134947359562, pos_vert_variance : 0.0029354402795434, compass_variance : 0.011786863207817078, terrain_alt_variance : 0.0, airspeed_variance : 0.0}
2025-11-18 17:43:16 [DEBUG] MAVLINK [LOCAL_POSITION_NED] LOCAL_POSITION_NED {time_boot_ms : 338053, x : -0.49467000365257263, y : -1.744242548942566, z : 0.856634795665741, vx : 0.004700232297182083, vy : -0.00019669115135911852, vz : -0.018545666709542274}
2025-11-18 17:43:16 [DEBUG] MAVLINK [VIBRATION] VIBRATION {time_usec : 338053336, vibration_x : 0.008372901938855648, vibration_y : 0.008471742272377014, vibration_z : 0.007991313003003597, clipping_0 : 0, clipping_1 : 0, clipping_2 : 0}
2025-11-18 17:43:16 [DEBUG] MAVLINK [BATTERY_STATUS] BATTERY_STATUS {id : 0, battery_function : 0, type : 0, temperature : 32767, voltages : [11031, 65535, 65535, 65535, 65535, 65535, 65535, 65535, 65535, 65535], current_battery : 2, current_consumed : 1, energy_consumed : 0, battery_remaining : 99, time_remaining : 0, charge_state : 1, voltages_ext : [0, 0, 0, 0], mode : 0, fault_bitmask : 0}
2025-11-18 17:43:16 [DEBUG] MAVLINK [MCU_STATUS] MCU_STATUS {id : 0, MCU_temperature : 4529, MCU_voltage : 3286, MCU_voltage_min : 3280, MCU_voltage_max : 3292}
2025-11-18 17:43:16 [DEBUG] MAVLINK [HEARTBEAT] HEARTBEAT {type : 2, autopilot : 3, base_mode : 89, custom_mode : 4, system_status : 3, mavlink_version : 3}
2025-11-18 17:43:16 [DEBUG] MAVLINK [HEARTBEAT] HEARTBEAT {type : 27, autopilot : 8, base_mode : 4, custom_mode : 0, system_status : 4, mavlink_version : 3}
2025-11-18 17:43:16 [DEBUG] MAVLINK [AHRS] AHRS {omegaIx : 0.0002531824284233153, omegaIy : -5.830950976815075e-05, omegaIz : -0.0010083118686452508, accel_weight : 0.0, renorm_val : 0.0, error_rp : 0.0013414245331659913, error_yaw : 0.007093684747815132}
2025-11-18 17:43:16 [DEBUG] MAVLINK [AHRS2] AHRS2 {roll : -0.054862916469573975, pitch : -0.0026637730188667774, yaw : 1.924867033958435, altitude : 579.8900146484375, lat : 174481084, lng : 783809850}
2025-11-18 17:43:16 [DEBUG] MAVLINK [ATTITUDE] ATTITUDE {time_boot_ms : 338300, roll : -0.05336010828614235, pitch : -0.002543054521083832, yaw : 1.9021724462509155, rollspeed : -0.00038394081639125943, pitchspeed : -0.00021279255452100188, yawspeed : 1.4588003978133202e-05}
2025-11-18 17:43:16 [DEBUG] MAVLINK [GLOBAL_POSITION_INT] GLOBAL_POSITION_INT {time_boot_ms : 338300, lat : 174481076, lon : 783809846, alt : 579940, relative_alt : -858, vx : 0, vy : 0, vz : -1, hdg : 10898}
2025-11-18 17:43:16 [DEBUG] MAVLINK [VFR_HUD] VFR_HUD {airspeed : 0.01771598495543003, groundspeed : 0.005374046042561531, heading : 108, throttle : 0, alt : 579.9400024414062, climb : 0.016881225630640984}
2025-11-18 17:43:16 [DEBUG] MAVLINK [SYS_STATUS] SYS_STATUS {onboard_control_sensors_present : 1399913519, onboard_control_sensors_enabled : 1113652271, onboard_control_sensors_health : 1198586895, load : 310, voltage_battery : 11033, current_battery : 2, battery_remaining : 99, drop_rate_comm : 0, errors_comm : 0, errors_count1 : 0, errors_count2 : 0, errors_count3 : 0, errors_count4 : 0}
2025-11-18 17:43:16 [DEBUG] MAVLINK [POWER_STATUS] POWER_STATUS {Vcc : 5288, Vservo : 5040, flags : 5}
2025-11-18 17:43:16 [DEBUG] MAVLINK [MEMINFO] MEMINFO {brkval : 0, freemem : 65535, freemem32 : 573504}
2025-11-18 17:43:16 [DEBUG] MAVLINK [NAV_CONTROLLER_OUTPUT] NAV_CONTROLLER_OUTPUT {nav_roll : -0.00019635686476249248, nav_pitch : 0.00034649696317501366, nav_bearing : 109, target_bearing : 0, wp_dist : 0, alt_error : 0.0, aspd_error : 0.0, xtrack_error : 0.0}
2025-11-18 17:43:16 [DEBUG] MAVLINK [MISSION_CURRENT] MISSION_CURRENT {seq : 0, total : 0, mission_state : 1, mission_mode : 0}
2025-11-18 17:43:16 [DEBUG] MAVLINK [SERVO_OUTPUT_RAW] SERVO_OUTPUT_RAW {time_usec : 338300616, port : 0, servo1_raw : 1000, servo2_raw : 1000, servo3_raw : 1000, servo4_raw : 1000, servo5_raw : 0, servo6_raw : 0, servo7_raw : 0, servo8_raw : 0, servo9_raw : 0, servo10_raw : 0, servo11_raw : 0, servo12_raw : 0, servo13_raw : 0, servo14_raw : 0, servo15_raw : 0, servo16_raw : 0}
2025-11-18 17:43:16 [DEBUG] MAVLINK [RC_CHANNELS] RC_CHANNELS {time_boot_ms : 338300, chancount : 0, chan1_raw : 0, chan2_raw : 0, chan3_raw : 0, chan4_raw : 0, chan5_raw : 0, chan6_raw : 0, chan7_raw : 0, chan8_raw : 0, chan9_raw : 0, chan10_raw : 0, chan11_raw : 0, chan12_raw : 0, chan13_raw : 0, chan14_raw : 0, chan15_raw : 0, chan16_raw : 0, chan17_raw : 0, chan18_raw : 0, rssi : 255}
2025-11-18 17:43:16 [DEBUG] MAVLINK [RAW_IMU] RAW_IMU {time_usec : 338300669, xacc : 11, yacc : 78, zacc : -998, xgyro : 0, ygyro : 0, zgyro : 1, xmag : -108, ymag : -295, zmag : 101, id : 0, temperature : 4480}
2025-11-18 17:43:16 [DEBUG] MAVLINK [SCALED_IMU2] SCALED_IMU2 {time_boot_ms : 338300, xacc : 15, yacc : 76, zacc : -995, xgyro : 1, ygyro : 0, zgyro : -2, xmag : -162, ymag : -396, zmag : 148, temperature : 4854}
2025-11-18 17:43:16 [DEBUG] MAVLINK [SCALED_IMU3] SCALED_IMU3 {time_boot_ms : 338300, xacc : 20, yacc : 66, zacc : -1001, xgyro : -1, ygyro : 0, zgyro : 0, xmag : 0, ymag : 0, zmag : 0, temperature : 4760}
2025-11-18 17:43:16 [DEBUG] MAVLINK [SCALED_PRESSURE] SCALED_PRESSURE {time_boot_ms : 338303, press_abs : 949.087158203125, press_diff : 0.0, temperature : 4654, temperature_press_diff : 0}
2025-11-18 17:43:16 [DEBUG] MAVLINK [SCALED_PRESSURE2] SCALED_PRESSURE2 {time_boot_ms : 338303, press_abs : 949.1825561523438, press_diff : 0.0, temperature : 4375, temperature_press_diff : 0}
2025-11-18 17:43:16 [DEBUG] MAVLINK [GPS_RAW_INT] GPS_RAW_INT {time_usec : 338192000, fix_type : 4, lat : 174481084, lon : 783809850, alt : 573120, eph : 77, epv : 138, vel : 0, cog : 18517, satellites_visible : 17, alt_ellipsoid : 499026, h_acc : 1262, v_acc : 1987, vel_acc : 326, hdg_acc : 0, yaw : 0}
2025-11-18 17:43:16 [DEBUG] MAVLINK [SYSTEM_TIME] SYSTEM_TIME {time_unix_usec : 1763467996191087, time_boot_ms : 338303}
2025-11-18 17:43:16 [DEBUG] MAVLINK [WIND] WIND {direction : -180.0, speed : 0.0, speed_z : 0.0}
2025-11-18 17:43:16 [DEBUG] MAVLINK [TERRAIN_REPORT] TERRAIN_REPORT {lat : 174481076, lon : 783809846, spacing : 100, terrain_height : 579.9920654296875, current_height : -0.05207839235663414, pending : 0, loaded : 504}
2025-11-18 17:43:16 [DEBUG] MAVLINK [EKF_STATUS_REPORT] EKF_STATUS_REPORT {flags : 831, velocity_variance : 0.013975651003420353, pos_horiz_variance : 0.010975636541843414, pos_vert_variance : 0.0038268230855464935, compass_variance : 0.009477426297962666, terrain_alt_variance : 0.0, airspeed_variance : 0.0}
2025-11-18 17:43:16 [DEBUG] MAVLINK [LOCAL_POSITION_NED] LOCAL_POSITION_NED {time_boot_ms : 338303, x : -0.48818159103393555, y : -1.744077444076538, z : 0.8587871193885803, vx : 0.005329889710992575, vy : -0.001047860481776297, vz : -0.01671331189572811}
2025-11-18 17:43:16 [DEBUG] MAVLINK [VIBRATION] VIBRATION {time_usec : 338303406, vibration_x : 0.007541092112660408, vibration_y : 0.007410792168229818, vibration_z : 0.00808998104184866, clipping_0 : 0, clipping_1 : 0, clipping_2 : 0}
2025-11-18 17:43:16 [DEBUG] MAVLINK [BATTERY_STATUS] BATTERY_STATUS {id : 0, battery_function : 0, type : 0, temperature : 32767, voltages : [11033, 65535, 65535, 65535, 65535, 65535, 65535, 65535, 65535, 65535], current_battery : 2, current_consumed : 1, energy_consumed : 0, battery_remaining : 99, time_remaining : 0, charge_state : 1, voltages_ext : [0, 0, 0, 0], mode : 0, fault_bitmask : 0}
2025-11-18 17:43:16 [DEBUG] MAVLINK [MCU_STATUS] MCU_STATUS {id : 0, MCU_temperature : 4529, MCU_voltage : 3286, MCU_voltage_min : 3280, MCU_voltage_max : 3295}
2025-11-18 17:43:16 [DEBUG] MAVLINK [AHRS] AHRS {omegaIx : 0.0002532649668864906, omegaIy : -5.855631752638146e-05, omegaIz : -0.0010053501464426517, accel_weight : 0.0, renorm_val : 0.0, error_rp : 0.0013414245331659913, error_yaw : 0.006684933323413134}
2025-11-18 17:43:16 [DEBUG] MAVLINK [AHRS2] AHRS2 {roll : -0.05488257855176926, pitch : -0.002736565424129367, yaw : 1.9250379800796509, altitude : 580.219970703125, lat : 174481084, lng : 783809850}
2025-11-18 17:43:16 [DEBUG] MAVLINK [ATTITUDE] ATTITUDE {time_boot_ms : 338550, roll : -0.053376179188489914, pitch : -0.0026009101420640945, yaw : 1.9023231267929077, rollspeed : 0.00014409868163056672, pitchspeed : -0.00011186049232492223, yawspeed : 0.0002451057080179453}
2025-11-18 17:43:16 [DEBUG] MAVLINK [GLOBAL_POSITION_INT] GLOBAL_POSITION_INT {time_boot_ms : 338550, lat : 174481076, lon : 783809846, alt : 579930, relative_alt : -860, vx : 0, vy : 0, vz : -1, hdg : 10899}
2025-11-18 17:43:16 [DEBUG] MAVLINK [VFR_HUD] VFR_HUD {airspeed : 0.01645282842218876, groundspeed : 0.0060029723681509495, heading : 108, throttle : 0, alt : 579.9299926757812, climb : 0.015318612568080425}
2025-11-18 17:43:16 [DEBUG] MAVLINK [SYS_STATUS] SYS_STATUS {onboard_control_sensors_present : 1399913519, onboard_control_sensors_enabled : 1113652271, onboard_control_sensors_health : 1198586895, load : 311, voltage_battery : 11034, current_battery : 2, battery_remaining : 99, drop_rate_comm : 0, errors_comm : 0, errors_count1 : 0, errors_count2 : 0, errors_count3 : 0, errors_count4 : 0}
2025-11-18 17:43:16 [DEBUG] MAVLINK [POWER_STATUS] POWER_STATUS {Vcc : 5287, Vservo : 5023, flags : 5}
2025-11-18 17:43:16 [DEBUG] MAVLINK [MEMINFO] MEMINFO {brkval : 0, freemem : 65535, freemem32 : 573504}
2025-11-18 17:43:16 [DEBUG] MAVLINK [NAV_CONTROLLER_OUTPUT] NAV_CONTROLLER_OUTPUT {nav_roll : -0.0001963568793144077, nav_pitch : 0.0003464969922788441, nav_bearing : 109, target_bearing : 0, wp_dist : 0, alt_error : 0.0, aspd_error : 0.0, xtrack_error : 0.0}
2025-11-18 17:43:16 [DEBUG] MAVLINK [MISSION_CURRENT] MISSION_CURRENT {seq : 0, total : 0, mission_state : 1, mission_mode : 0}
2025-11-18 17:43:16 [DEBUG] MAVLINK [SERVO_OUTPUT_RAW] SERVO_OUTPUT_RAW {time_usec : 338550580, port : 0, servo1_raw : 1000, servo2_raw : 1000, servo3_raw : 1000, servo4_raw : 1000, servo5_raw : 0, servo6_raw : 0, servo7_raw : 0, servo8_raw : 0, servo9_raw : 0, servo10_raw : 0, servo11_raw : 0, servo12_raw : 0, servo13_raw : 0, servo14_raw : 0, servo15_raw : 0, servo16_raw : 0}
2025-11-18 17:43:16 [DEBUG] MAVLINK [RC_CHANNELS] RC_CHANNELS {time_boot_ms : 338550, chancount : 0, chan1_raw : 0, chan2_raw : 0, chan3_raw : 0, chan4_raw : 0, chan5_raw : 0, chan6_raw : 0, chan7_raw : 0, chan8_raw : 0, chan9_raw : 0, chan10_raw : 0, chan11_raw : 0, chan12_raw : 0, chan13_raw : 0, chan14_raw : 0, chan15_raw : 0, chan16_raw : 0, chan17_raw : 0, chan18_raw : 0, rssi : 255}
2025-11-18 17:43:16 [DEBUG] MAVLINK [RAW_IMU] RAW_IMU {time_usec : 338550636, xacc : 11, yacc : 78, zacc : -998, xgyro : 0, ygyro : 0, zgyro : 1, xmag : -107, ymag : -295, zmag : 100, id : 0, temperature : 4480}
2025-11-18 17:43:16 [DEBUG] MAVLINK [SCALED_IMU2] SCALED_IMU2 {time_boot_ms : 338553, xacc : 14, yacc : 75, zacc : -997, xgyro : 1, ygyro : 0, zgyro : -1, xmag : -149, ymag : -372, zmag : 159, temperature : 4853}
2025-11-18 17:43:16 [DEBUG] MAVLINK [SCALED_IMU3] SCALED_IMU3 {time_boot_ms : 338553, xacc : 20, yacc : 67, zacc : -999, xgyro : 0, ygyro : 0, zgyro : -1, xmag : 0, ymag : 0, zmag : 0, temperature : 4760}
2025-11-18 17:43:16 [DEBUG] MAVLINK [SCALED_PRESSURE] SCALED_PRESSURE {time_boot_ms : 338553, press_abs : 949.053955078125, press_diff : 0.0, temperature : 4654, temperature_press_diff : 0}
2025-11-18 17:43:16 [DEBUG] MAVLINK [SCALED_PRESSURE2] SCALED_PRESSURE2 {time_boot_ms : 338553, press_abs : 949.1779174804688, press_diff : 0.0, temperature : 4375, temperature_press_diff : 0}
2025-11-18 17:43:16 [DEBUG] MAVLINK [GPS_RAW_INT] GPS_RAW_INT {time_usec : 338192000, fix_type : 4, lat : 174481084, lon : 783809850, alt : 573120, eph : 77, epv : 138, vel : 0, cog : 18517, satellites_visible : 17, alt_ellipsoid : 499026, h_acc : 1262, v_acc : 1987, vel_acc : 326, hdg_acc : 0, yaw : 0}
2025-11-18 17:43:16 [DEBUG] MAVLINK [SYSTEM_TIME] SYSTEM_TIME {time_unix_usec : 1763467996441109, time_boot_ms : 338553}
2025-11-18 17:43:16 [DEBUG] MAVLINK [WIND] WIND {direction : -180.0, speed : 0.0, speed_z : 0.0}
2025-11-18 17:43:16 [DEBUG] MAVLINK [TERRAIN_REPORT] TERRAIN_REPORT {lat : 174481076, lon : 783809846, spacing : 100, terrain_height : 579.9920654296875, current_height : -0.05207839235663414, pending : 0, loaded : 504}
2025-11-18 17:43:16 [DEBUG] MAVLINK [EKF_STATUS_REPORT] EKF_STATUS_REPORT {flags : 831, velocity_variance : 0.013975651003420353, pos_horiz_variance : 0.010975636541843414, pos_vert_variance : 0.028121789917349815, compass_variance : 0.009504563175141811, terrain_alt_variance : 0.0, airspeed_variance : 0.0}
2025-11-18 17:43:16 [DEBUG] MAVLINK [LOCAL_POSITION_NED] LOCAL_POSITION_NED {time_boot_ms : 338553, x : -0.4820055067539215, y : -1.7422207593917847, z : 0.8597204089164734, vx : 0.006007584277540445, vy : -0.0005952620413154364, vz : -0.015398858115077019}
2025-11-18 17:43:16 [DEBUG] MAVLINK [VIBRATION] VIBRATION {time_usec : 338553382, vibration_x : 0.0069231269881129265, vibration_y : 0.007205495610833168, vibration_z : 0.007725873030722141, clipping_0 : 0, clipping_1 : 0, clipping_2 : 0}
2025-11-18 17:43:16 [DEBUG] MAVLINK [BATTERY_STATUS] BATTERY_STATUS {id : 0, battery_function : 0, type : 0, temperature : 32767, voltages : [11034, 65535, 65535, 65535, 65535, 65535, 65535, 65535, 65535, 65535], current_battery : 2, current_consumed : 1, energy_consumed : 0, battery_remaining : 99, time_remaining : 0, charge_state : 1, voltages_ext : [0, 0, 0, 0], mode : 0, fault_bitmask : 0}
2025-11-18 17:43:16 [DEBUG] MAVLINK [MCU_STATUS] MCU_STATUS {id : 0, MCU_temperature : 4527, MCU_voltage : 3286, MCU_voltage_min : 3281, MCU_voltage_max : 3292}
2025-11-18 17:43:16 [INFO] Arming motors...
2025-11-18 17:43:16 [INFO] Waiting for motors to arm...
2025-11-18 17:43:16 [DEBUG] MAVLINK [COMMAND_ACK] COMMAND_ACK {command : 400, result : 0, progress : 0, result_param2 : 0, target_system : 255, target_component : 0}
2025-11-18 17:43:16 [DEBUG] MAVLINK [GPS_GLOBAL_ORIGIN] GPS_GLOBAL_ORIGIN {latitude : 174481120, longitude : 783810011, altitude : 580800, time_usec : 338608887}
2025-11-18 17:43:16 [DEBUG] MAVLINK [HOME_POSITION] HOME_POSITION {latitude : 174481076, longitude : 783809846, altitude : 579940, x : -0.48980292677879333, y : -1.7522495985031128, z : 0.85999995470047, q : [nan, nan, nan, nan], approach_x : 0.0, approach_y : 0.0, approach_z : 0.0, time_usec : 338608899}
2025-11-18 17:43:16 [DEBUG] MAVLINK [STATUSTEXT] STATUSTEXT {severity : 4, text : Warning: Arming Checks Disabled, id : 0, chunk_seq : 0}
2025-11-18 17:43:16 [DEBUG] MAVLINK [STATUSTEXT] STATUSTEXT {severity : 4, text : Radio Failsafe - Disarming, id : 0, chunk_seq : 0}
2025-11-18 17:43:16 [DEBUG] MAVLINK [PARAM_VALUE] PARAM_VALUE {param_id : MOT_THST_HOVER, param_value : 0.49254846572875977, param_type : 9, param_count : 1100, param_index : 65535}
2025-11-18 17:43:16 [DEBUG] MAVLINK [HEARTBEAT] HEARTBEAT {type : 6, autopilot : 8, base_mode : 192, custom_mode : 0, system_status : 4, mavlink_version : 3}
2025-11-18 17:43:16 [DEBUG] MAVLINK [AHRS] AHRS {omegaIx : 0.0002574426180217415, omegaIy : -6.094686614233069e-05, omegaIz : -0.0010048483964055777, accel_weight : 0.0, renorm_val : 0.0, error_rp : 0.0013781068846583366, error_yaw : 0.007652821950614452}
2025-11-18 17:43:16 [DEBUG] MAVLINK [AHRS2] AHRS2 {roll : -0.05491729825735092, pitch : -0.0027878431137651205, yaw : 1.9252065420150757, altitude : 579.1099853515625, lat : 174481085, lng : 783809850}
2025-11-18 17:43:16 [DEBUG] MAVLINK [ATTITUDE] ATTITUDE {time_boot_ms : 338800, roll : -0.05331661179661751, pitch : -0.0026564011350274086, yaw : 1.9025212526321411, rollspeed : -0.00018876756075769663, pitchspeed : -0.0003191686701029539, yawspeed : 1.510384026914835e-05}
2025-11-18 17:43:16 [DEBUG] MAVLINK [GLOBAL_POSITION_INT] GLOBAL_POSITION_INT {time_boot_ms : 338800, lat : 174481076, lon : 783809847, alt : 579940, relative_alt : 8, vx : 0, vy : 0, vz : -1, hdg : 10900}
2025-11-18 17:43:16 [DEBUG] MAVLINK [VFR_HUD] VFR_HUD {airspeed : 0.01710088923573494, groundspeed : 0.0040552858263254166, heading : 109, throttle : 0, alt : 579.9400024414062, climb : 0.016613097861409187}
2025-11-18 17:43:16 [DEBUG] MAVLINK [SYS_STATUS] SYS_STATUS {onboard_control_sensors_present : 1399913519, onboard_control_sensors_enabled : 1130429487, onboard_control_sensors_health : 1198586895, load : 300, voltage_battery : 11028, current_battery : 2, battery_remaining : 99, drop_rate_comm : 0, errors_comm : 0, errors_count1 : 0, errors_count2 : 0, errors_count3 : 0, errors_count4 : 0}
2025-11-18 17:43:16 [DEBUG] MAVLINK [POWER_STATUS] POWER_STATUS {Vcc : 5274, Vservo : 5040, flags : 5}
2025-11-18 17:43:16 [DEBUG] MAVLINK [MEMINFO] MEMINFO {brkval : 0, freemem : 65535, freemem32 : 571792}
2025-11-18 17:43:16 [DEBUG] MAVLINK [NAV_CONTROLLER_OUTPUT] NAV_CONTROLLER_OUTPUT {nav_roll : -0.00019635680655483156, nav_pitch : 0.0003464968176558614, nav_bearing : 109, target_bearing : 0, wp_dist : 0, alt_error : 0.0, aspd_error : 0.0, xtrack_error : 0.0}
2025-11-18 17:43:16 [DEBUG] MAVLINK [MISSION_CURRENT] MISSION_CURRENT {seq : 0, total : 0, mission_state : 1, mission_mode : 0}
2025-11-18 17:43:16 [DEBUG] MAVLINK [SERVO_OUTPUT_RAW] SERVO_OUTPUT_RAW {time_usec : 338800798, port : 0, servo1_raw : 1000, servo2_raw : 1000, servo3_raw : 1000, servo4_raw : 1000, servo5_raw : 0, servo6_raw : 0, servo7_raw : 0, servo8_raw : 0, servo9_raw : 0, servo10_raw : 0, servo11_raw : 0, servo12_raw : 0, servo13_raw : 0, servo14_raw : 0, servo15_raw : 0, servo16_raw : 0}
2025-11-18 17:43:16 [DEBUG] MAVLINK [RC_CHANNELS] RC_CHANNELS {time_boot_ms : 338800, chancount : 0, chan1_raw : 0, chan2_raw : 0, chan3_raw : 0, chan4_raw : 0, chan5_raw : 0, chan6_raw : 0, chan7_raw : 0, chan8_raw : 0, chan9_raw : 0, chan10_raw : 0, chan11_raw : 0, chan12_raw : 0, chan13_raw : 0, chan14_raw : 0, chan15_raw : 0, chan16_raw : 0, chan17_raw : 0, chan18_raw : 0, rssi : 255}
2025-11-18 17:43:16 [DEBUG] MAVLINK [RAW_IMU] RAW_IMU {time_usec : 338800855, xacc : 10, yacc : 78, zacc : -998, xgyro : 0, ygyro : 0, zgyro : 1, xmag : -109, ymag : -294, zmag : 100, id : 0, temperature : 4480}
2025-11-18 17:43:16 [DEBUG] MAVLINK [SCALED_IMU2] SCALED_IMU2 {time_boot_ms : 338800, xacc : 14, yacc : 75, zacc : -997, xgyro : 0, ygyro : 0, zgyro : -2, xmag : -149, ymag : -371, zmag : 148, temperature : 4853}
2025-11-18 17:43:16 [DEBUG] MAVLINK [SCALED_IMU3] SCALED_IMU3 {time_boot_ms : 338800, xacc : 20, yacc : 66, zacc : -1001, xgyro : -4, ygyro : 1, zgyro : -1, xmag : 0, ymag : 0, zmag : 0, temperature : 4760}
2025-11-18 17:43:16 [DEBUG] MAVLINK [SCALED_PRESSURE] SCALED_PRESSURE {time_boot_ms : 338803, press_abs : 949.0899047851562, press_diff : 0.0, temperature : 4654, temperature_press_diff : 0}
2025-11-18 17:43:16 [DEBUG] MAVLINK [SCALED_PRESSURE2] SCALED_PRESSURE2 {time_boot_ms : 338803, press_abs : 949.182373046875, press_diff : 0.0, temperature : 4376, temperature_press_diff : 0}
2025-11-18 17:43:16 [DEBUG] MAVLINK [GPS_RAW_INT] GPS_RAW_INT {time_usec : 338592000, fix_type : 4, lat : 174481085, lon : 783809850, alt : 573100, eph : 77, epv : 138, vel : 2, cog : 18517, satellites_visible : 17, alt_ellipsoid : 499006, h_acc : 1264, v_acc : 1989, vel_acc : 307, hdg_acc : 0, yaw : 0}
2025-11-18 17:43:16 [DEBUG] MAVLINK [SYSTEM_TIME] SYSTEM_TIME {time_unix_usec : 1763467996691113, time_boot_ms : 338803}
2025-11-18 17:43:16 [DEBUG] MAVLINK [WIND] WIND {direction : -180.0, speed : 0.0, speed_z : 0.0}
2025-11-18 17:43:16 [DEBUG] MAVLINK [TERRAIN_REPORT] TERRAIN_REPORT {lat : 174481076, lon : 783809847, spacing : 100, terrain_height : 579.9402465820312, current_height : -0.00025954470038414, pending : 0, loaded : 504}
2025-11-18 17:43:16 [DEBUG] MAVLINK [EKF_STATUS_REPORT] EKF_STATUS_REPORT {flags : 831, velocity_variance : 0.009988843463361263, pos_horiz_variance : 0.010843335650861263, pos_vert_variance : 0.0028436407446861267, compass_variance : 0.009089818224310875, terrain_alt_variance : 0.0, airspeed_variance : 0.0}
2025-11-18 17:43:16 [DEBUG] MAVLINK [LOCAL_POSITION_NED] LOCAL_POSITION_NED {time_boot_ms : 338803, x : -0.47882452607154846, y : -1.7390397787094116, z : 0.851168155670166, vx : 0.003991830628365278, vy : 0.00020523385319393128, vz : -0.016652818769216537}
2025-11-18 17:43:16 [DEBUG] MAVLINK [VIBRATION] VIBRATION {time_usec : 338803422, vibration_x : 0.008159728720784187, vibration_y : 0.00703464774414897, vibration_z : 0.008813923224806786, clipping_0 : 0, clipping_1 : 0, clipping_2 : 0}
2025-11-18 17:43:16 [DEBUG] MAVLINK [BATTERY_STATUS] BATTERY_STATUS {id : 0, battery_function : 0, type : 0, temperature : 32767, voltages : [11028, 65535, 65535, 65535, 65535, 65535, 65535, 65535, 65535, 65535], current_battery : 2, current_consumed : 1, energy_consumed : 0, battery_remaining : 99, time_remaining : 0, charge_state : 1, voltages_ext : [0, 0, 0, 0], mode : 0, fault_bitmask : 0}
2025-11-18 17:43:16 [DEBUG] MAVLINK [MCU_STATUS] MCU_STATUS {id : 0, MCU_temperature : 4529, MCU_voltage : 3286, MCU_voltage_min : 3279, MCU_voltage_max : 3291}
2025-11-18 17:43:17 [DEBUG] MAVLINK [AHRS] AHRS {omegaIx : 0.00026814607554115355, omegaIy : -6.305676652118564e-05, omegaIz : -0.0010014097206294537, accel_weight : 0.0, renorm_val : 0.0, error_rp : 0.0014066960429772735, error_yaw : 0.007957138121128082}
2025-11-18 17:43:17 [DEBUG] MAVLINK [AHRS2] AHRS2 {roll : -0.05493837222456932, pitch : -0.002837439766153693, yaw : 1.9253813028335571, altitude : 579.0399780273438, lat : 174481085, lng : 783809849}
2025-11-18 17:43:17 [DEBUG] MAVLINK [ATTITUDE] ATTITUDE {time_boot_ms : 339050, roll : -0.05324864014983177, pitch : -0.002691815607249737, yaw : 1.902709722518921, rollspeed : -0.0002222821640316397, pitchspeed : -0.00021186264348216355, yawspeed : -6.23356900177896e-05}
2025-11-18 17:43:17 [DEBUG] MAVLINK [GLOBAL_POSITION_INT] GLOBAL_POSITION_INT {time_boot_ms : 339050, lat : 174481076, lon : 783809847, alt : 579950, relative_alt : 14, vx : 0, vy : 0, vz : -1, hdg : 10901}
2025-11-18 17:43:17 [DEBUG] MAVLINK [VFR_HUD] VFR_HUD {airspeed : 0.01773405261337757, groundspeed : 0.0011518696555867791, heading : 109, throttle : 0, alt : 579.9500122070312, climb : 0.017696604132652283}
2025-11-18 17:43:17 [DEBUG] MAVLINK [SYS_STATUS] SYS_STATUS {onboard_control_sensors_present : 1399913519, onboard_control_sensors_enabled : 1130429487, onboard_control_sensors_health : 1198586895, load : 414, voltage_battery : 11031, current_battery : 1, battery_remaining : 99, drop_rate_comm : 0, errors_comm : 0, errors_count1 : 0, errors_count2 : 0, errors_count3 : 0, errors_count4 : 0}
2025-11-18 17:43:17 [DEBUG] MAVLINK [POWER_STATUS] POWER_STATUS {Vcc : 5265, Vservo : 5021, flags : 5}
2025-11-18 17:43:17 [DEBUG] MAVLINK [MEMINFO] MEMINFO {brkval : 0, freemem : 65535, freemem32 : 571096}
2025-11-18 17:43:17 [DEBUG] MAVLINK [NAV_CONTROLLER_OUTPUT] NAV_CONTROLLER_OUTPUT {nav_roll : -0.0001963568211067468, nav_pitch : 0.00034649690496735275, nav_bearing : 109, target_bearing : 0, wp_dist : 0, alt_error : 0.0, aspd_error : 0.0, xtrack_error : 0.0}
2025-11-18 17:43:17 [DEBUG] MAVLINK [MISSION_CURRENT] MISSION_CURRENT {seq : 0, total : 0, mission_state : 1, mission_mode : 0}
2025-11-18 17:43:17 [DEBUG] MAVLINK [SERVO_OUTPUT_RAW] SERVO_OUTPUT_RAW {time_usec : 339050681, port : 0, servo1_raw : 1000, servo2_raw : 1000, servo3_raw : 1000, servo4_raw : 1000, servo5_raw : 0, servo6_raw : 0, servo7_raw : 0, servo8_raw : 0, servo9_raw : 0, servo10_raw : 0, servo11_raw : 0, servo12_raw : 0, servo13_raw : 0, servo14_raw : 0, servo15_raw : 0, servo16_raw : 0}
2025-11-18 17:43:17 [DEBUG] MAVLINK [RC_CHANNELS] RC_CHANNELS {time_boot_ms : 339050, chancount : 0, chan1_raw : 0, chan2_raw : 0, chan3_raw : 0, chan4_raw : 0, chan5_raw : 0, chan6_raw : 0, chan7_raw : 0, chan8_raw : 0, chan9_raw : 0, chan10_raw : 0, chan11_raw : 0, chan12_raw : 0, chan13_raw : 0, chan14_raw : 0, chan15_raw : 0, chan16_raw : 0, chan17_raw : 0, chan18_raw : 0, rssi : 255}
2025-11-18 17:43:17 [DEBUG] MAVLINK [RAW_IMU] RAW_IMU {time_usec : 339053076, xacc : 11, yacc : 78, zacc : -998, xgyro : 0, ygyro : 0, zgyro : 1, xmag : -107, ymag : -295, zmag : 100, id : 0, temperature : 4480}
2025-11-18 17:43:17 [DEBUG] MAVLINK [SCALED_IMU2] SCALED_IMU2 {time_boot_ms : 339053, xacc : 13, yacc : 76, zacc : -997, xgyro : 0, ygyro : -1, zgyro : 0, xmag : -166, ymag : -379, zmag : 160, temperature : 4853}
2025-11-18 17:43:17 [DEBUG] MAVLINK [SCALED_IMU3] SCALED_IMU3 {time_boot_ms : 339053, xacc : 22, yacc : 68, zacc : -1000, xgyro : -1, ygyro : 0, zgyro : 0, xmag : 0, ymag : 0, zmag : 0, temperature : 4760}
2025-11-18 17:43:17 [DEBUG] MAVLINK [SCALED_PRESSURE] SCALED_PRESSURE {time_boot_ms : 339053, press_abs : 949.0901489257812, press_diff : 0.0, temperature : 4654, temperature_press_diff : 0}
2025-11-18 17:43:17 [DEBUG] MAVLINK [SCALED_PRESSURE2] SCALED_PRESSURE2 {time_boot_ms : 339053, press_abs : 949.1715698242188, press_diff : 0.0, temperature : 4375, temperature_press_diff : 0}
2025-11-18 17:43:17 [DEBUG] MAVLINK [GPS_RAW_INT] GPS_RAW_INT {time_usec : 338992000, fix_type : 4, lat : 174481085, lon : 783809849, alt : 573130, eph : 77, epv : 138, vel : 5, cog : 18517, satellites_visible : 17, alt_ellipsoid : 499035, h_acc : 1266, v_acc : 1991, vel_acc : 275, hdg_acc : 0, yaw : 0}
2025-11-18 17:43:17 [DEBUG] MAVLINK [SYSTEM_TIME] SYSTEM_TIME {time_unix_usec : 1763467996941034, time_boot_ms : 339053}
2025-11-18 17:43:17 [DEBUG] MAVLINK [WIND] WIND {direction : -180.0, speed : 0.0, speed_z : 0.0}
2025-11-18 17:43:17 [DEBUG] MAVLINK [TERRAIN_REPORT] TERRAIN_REPORT {lat : 174481076, lon : 783809847, spacing : 100, terrain_height : 579.9402465820312, current_height : 0.009740455076098442, pending : 0, loaded : 504}
2025-11-18 17:43:17 [DEBUG] MAVLINK [EKF_STATUS_REPORT] EKF_STATUS_REPORT {flags : 831, velocity_variance : 0.020211236551404, pos_horiz_variance : 0.010230671614408493, pos_vert_variance : 0.0051628039218485355, compass_variance : 0.007571189198642969, terrain_alt_variance : 0.0, airspeed_variance : 0.0}
2025-11-18 17:43:17 [DEBUG] MAVLINK [LOCAL_POSITION_NED] LOCAL_POSITION_NED {time_boot_ms : 339055, x : -0.4800109267234802, y : -1.737464189529419, z : 0.8448878526687622, vx : 0.0005002200487069786, vy : 0.0006729192100465298, vz : -0.017747528851032257}
2025-11-18 17:43:17 [DEBUG] MAVLINK [VIBRATION] VIBRATION {time_usec : 339055724, vibration_x : 0.008389370515942574, vibration_y : 0.00688313040882349, vibration_z : 0.0077399988658726215, clipping_0 : 0, clipping_1 : 0, clipping_2 : 0}
2025-11-18 17:43:17 [DEBUG] MAVLINK [BATTERY_STATUS] BATTERY_STATUS {id : 0, battery_function : 0, type : 0, temperature : 32767, voltages : [11031, 65535, 65535, 65535, 65535, 65535, 65535, 65535, 65535, 65535], current_battery : 1, current_consumed : 1, energy_consumed : 0, battery_remaining : 99, time_remaining : 0, charge_state : 1, voltages_ext : [0, 0, 0, 0], mode : 0, fault_bitmask : 0}
2025-11-18 17:43:17 [DEBUG] MAVLINK [MCU_STATUS] MCU_STATUS {id : 0, MCU_temperature : 4536, MCU_voltage : 3286, MCU_voltage_min : 3278, MCU_voltage_max : 3294}
2025-11-18 17:43:17 [DEBUG] MAVLINK [HEARTBEAT] HEARTBEAT {type : 2, autopilot : 3, base_mode : 89, custom_mode : 4, system_status : 5, mavlink_version : 3}
2025-11-18 17:43:17 [DEBUG] MAVLINK [HEARTBEAT] HEARTBEAT {type : 27, autopilot : 8, base_mode : 4, custom_mode : 0, system_status : 4, mavlink_version : 3}
2025-11-18 17:43:17 [DEBUG] MAVLINK [AHRS] AHRS {omegaIx : 0.0002679492754396051, omegaIy : -6.31699658697471e-05, omegaIz : -0.0009987731464207172, accel_weight : 0.0, renorm_val : 0.0, error_rp : 0.0014066960429772735, error_yaw : 0.007276859134435654}
2025-11-18 17:43:17 [DEBUG] MAVLINK [AHRS2] AHRS2 {roll : -0.05496438965201378, pitch : -0.0028623398393392563, yaw : 1.9255656003952026, altitude : 578.9099731445312, lat : 174481084, lng : 783809849}
2025-11-18 17:43:17 [DEBUG] MAVLINK [ATTITUDE] ATTITUDE {time_boot_ms : 339300, roll : -0.05307822301983833, pitch : -0.002720896154642105, yaw : 1.9028666019439697, rollspeed : 0.0002874308847822249, pitchspeed : -0.0003027773054782301, yawspeed : 0.00046297069638967514}
2025-11-18 17:43:17 [DEBUG] MAVLINK [GLOBAL_POSITION_INT] GLOBAL_POSITION_INT {time_boot_ms : 339300, lat : 174481076, lon : 783809847, alt : 579950, relative_alt : 16, vx : 0, vy : 0, vz : -1, hdg : 10902}
2025-11-18 17:43:17 [DEBUG] MAVLINK [VFR_HUD] VFR_HUD {airspeed : 0.01865752972662449, groundspeed : 0.005439975298941135, heading : 109, throttle : 0, alt : 579.9500122070312, climb : 0.0178468506783247}
2025-11-18 17:43:17 [DEBUG] MAVLINK [SYS_STATUS] SYS_STATUS {onboard_control_sensors_present : 1399913519, onboard_control_sensors_enabled : 1130429487, onboard_control_sensors_health : 1198586895, load : 304, voltage_battery : 11027, current_battery : 1, battery_remaining : 99, drop_rate_comm : 0, errors_comm : 0, errors_count1 : 0, errors_count2 : 0, errors_count3 : 0, errors_count4 : 0}
2025-11-18 17:43:17 [DEBUG] MAVLINK [POWER_STATUS] POWER_STATUS {Vcc : 5275, Vservo : 5026, flags : 5}
2025-11-18 17:43:17 [DEBUG] MAVLINK [MEMINFO] MEMINFO {brkval : 0, freemem : 65535, freemem32 : 570392}
2025-11-18 17:43:17 [DEBUG] MAVLINK [NAV_CONTROLLER_OUTPUT] NAV_CONTROLLER_OUTPUT {nav_roll : -0.00019635674834717065, nav_pitch : 0.00034649690496735275, nav_bearing : 109, target_bearing : 0, wp_dist : 0, alt_error : 0.0, aspd_error : 0.0, xtrack_error : 0.0}
2025-11-18 17:43:17 [DEBUG] MAVLINK [MISSION_CURRENT] MISSION_CURRENT {seq : 0, total : 0, mission_state : 1, mission_mode : 0}
2025-11-18 17:43:17 [DEBUG] MAVLINK [SERVO_OUTPUT_RAW] SERVO_OUTPUT_RAW {time_usec : 339300771, port : 0, servo1_raw : 1000, servo2_raw : 1000, servo3_raw : 1000, servo4_raw : 1000, servo5_raw : 0, servo6_raw : 0, servo7_raw : 0, servo8_raw : 0, servo9_raw : 0, servo10_raw : 0, servo11_raw : 0, servo12_raw : 0, servo13_raw : 0, servo14_raw : 0, servo15_raw : 0, servo16_raw : 0}
2025-11-18 17:43:17 [DEBUG] MAVLINK [RC_CHANNELS] RC_CHANNELS {time_boot_ms : 339300, chancount : 0, chan1_raw : 0, chan2_raw : 0, chan3_raw : 0, chan4_raw : 0, chan5_raw : 0, chan6_raw : 0, chan7_raw : 0, chan8_raw : 0, chan9_raw : 0, chan10_raw : 0, chan11_raw : 0, chan12_raw : 0, chan13_raw : 0, chan14_raw : 0, chan15_raw : 0, chan16_raw : 0, chan17_raw : 0, chan18_raw : 0, rssi : 255}
2025-11-18 17:43:17 [DEBUG] MAVLINK [RAW_IMU] RAW_IMU {time_usec : 339300801, xacc : 11, yacc : 78, zacc : -998, xgyro : 0, ygyro : 0, zgyro : 1, xmag : -107, ymag : -295, zmag : 101, id : 0, temperature : 4480}
2025-11-18 17:43:17 [DEBUG] MAVLINK [SCALED_IMU2] SCALED_IMU2 {time_boot_ms : 339300, xacc : 14, yacc : 75, zacc : -997, xgyro : 1, ygyro : 0, zgyro : -1, xmag : -151, ymag : -383, zmag : 147, temperature : 4854}
2025-11-18 17:43:17 [DEBUG] MAVLINK [SCALED_IMU3] SCALED_IMU3 {time_boot_ms : 339300, xacc : 20, yacc : 67, zacc : -997, xgyro : 0, ygyro : 0, zgyro : 0, xmag : 0, ymag : 0, zmag : 0, temperature : 4759}
2025-11-18 17:43:17 [DEBUG] MAVLINK [SCALED_PRESSURE] SCALED_PRESSURE {time_boot_ms : 339300, press_abs : 949.0675659179688, press_diff : 0.0, temperature : 4653, temperature_press_diff : 0}
2025-11-18 17:43:17 [DEBUG] MAVLINK [SCALED_PRESSURE2] SCALED_PRESSURE2 {time_boot_ms : 339303, press_abs : 949.1821899414062, press_diff : 0.0, temperature : 4375, temperature_press_diff : 0}
2025-11-18 17:43:17 [DEBUG] MAVLINK [GPS_RAW_INT] GPS_RAW_INT {time_usec : 338992000, fix_type : 4, lat : 174481085, lon : 783809849, alt : 573130, eph : 77, epv : 138, vel : 5, cog : 18517, satellites_visible : 17, alt_ellipsoid : 499035, h_acc : 1266, v_acc : 1991, vel_acc : 275, hdg_acc : 0, yaw : 0}
2025-11-18 17:43:17 [DEBUG] MAVLINK [SYSTEM_TIME] SYSTEM_TIME {time_unix_usec : 1763467997191069, time_boot_ms : 339303}
2025-11-18 17:43:17 [DEBUG] MAVLINK [WIND] WIND {direction : -180.0, speed : 0.0, speed_z : 0.0}
2025-11-18 17:43:17 [DEBUG] MAVLINK [TERRAIN_REPORT] TERRAIN_REPORT {lat : 174481076, lon : 783809847, spacing : 100, terrain_height : 579.9402465820312, current_height : 0.009740455076098442, pending : 0, loaded : 504}
2025-11-18 17:43:17 [DEBUG] MAVLINK [EKF_STATUS_REPORT] EKF_STATUS_REPORT {flags : 831, velocity_variance : 0.020211236551404, pos_horiz_variance : 0.010230671614408493, pos_vert_variance : 0.017564494162797928, compass_variance : 0.010550866834819317, terrain_alt_variance : 0.0, airspeed_variance : 0.0}
2025-11-18 17:43:17 [DEBUG] MAVLINK [LOCAL_POSITION_NED] LOCAL_POSITION_NED {time_boot_ms : 339303, x : -0.4866039454936981, y : -1.7373301982879639, z : 0.8437048196792603, vx : -0.00557974586263299, vy : 0.0005203848122619092, vz : -0.01781073398888111}
2025-11-18 17:43:17 [DEBUG] MAVLINK [VIBRATION] VIBRATION {time_usec : 339303408, vibration_x : 0.008180693723261356, vibration_y : 0.007915431633591652, vibration_z : 0.008496671915054321, clipping_0 : 0, clipping_1 : 0, clipping_2 : 0}
2025-11-18 17:43:17 [DEBUG] MAVLINK [BATTERY_STATUS] BATTERY_STATUS {id : 0, battery_function : 0, type : 0, temperature : 32767, voltages : [11027, 65535, 65535, 65535, 65535, 65535, 65535, 65535, 65535, 65535], current_battery : 1, current_consumed : 1, energy_consumed : 0, battery_remaining : 99, time_remaining : 0, charge_state : 1, voltages_ext : [0, 0, 0, 0], mode : 0, fault_bitmask : 0}
2025-11-18 17:43:17 [DEBUG] MAVLINK [MCU_STATUS] MCU_STATUS {id : 0, MCU_temperature : 4536, MCU_voltage : 3286, MCU_voltage_min : 3280, MCU_voltage_max : 3292}
2025-11-18 17:43:17 [DEBUG] MAVLINK [AHRS] AHRS {omegaIx : 0.0002645945060066879, omegaIy : -6.090363240218721e-05, omegaIz : -0.0009959049057215452, accel_weight : 0.0, renorm_val : 0.0, error_rp : 0.0014512051129713655, error_yaw : 0.007037939969450235}
2025-11-18 17:43:17 [DEBUG] MAVLINK [AHRS2] AHRS2 {roll : -0.054993726313114166, pitch : -0.002909506903961301, yaw : 1.925723671913147, altitude : 579.4199829101562, lat : 174481085, lng : 783809846}
2025-11-18 17:43:17 [DEBUG] MAVLINK [ATTITUDE] ATTITUDE {time_boot_ms : 339550, roll : -0.053140465170145035, pitch : -0.002704559825360775, yaw : 1.9030487537384033, rollspeed : -0.000697024108376354, pitchspeed : -0.0002893271448556334, yawspeed : -0.0004974825424142182}
2025-11-18 17:43:17 [DEBUG] MAVLINK [GLOBAL_POSITION_INT] GLOBAL_POSITION_INT {time_boot_ms : 339550, lat : 174481076, lon : 783809847, alt : 579950, relative_alt : 14, vx : 0, vy : 0, vz : -1, hdg : 10903}
2025-11-18 17:43:17 [DEBUG] MAVLINK [VFR_HUD] VFR_HUD {airspeed : 0.01771119423210621, groundspeed : 0.006538584362715483, heading : 109, throttle : 0, alt : 579.9500122070312, climb : 0.016460051760077477}
2025-11-18 17:43:17 [DEBUG] MAVLINK [SYS_STATUS] SYS_STATUS {onboard_control_sensors_present : 1399913519, onboard_control_sensors_enabled : 1130429487, onboard_control_sensors_health : 1198586895, load : 317, voltage_battery : 11034, current_battery : 2, battery_remaining : 99, drop_rate_comm : 0, errors_comm : 0, errors_count1 : 0, errors_count2 : 0, errors_count3 : 0, errors_count4 : 0}
2025-11-18 17:43:17 [DEBUG] MAVLINK [POWER_STATUS] POWER_STATUS {Vcc : 5287, Vservo : 5026, flags : 5}
2025-11-18 17:43:17 [DEBUG] MAVLINK [MEMINFO] MEMINFO {brkval : 0, freemem : 65535, freemem32 : 571896}
2025-11-18 17:43:17 [DEBUG] MAVLINK [NAV_CONTROLLER_OUTPUT] NAV_CONTROLLER_OUTPUT {nav_roll : -0.00019635673379525542, nav_pitch : 0.00034649684675969183, nav_bearing : 109, target_bearing : 0, wp_dist : 0, alt_error : 0.0, aspd_error : 0.0, xtrack_error : 0.0}
2025-11-18 17:43:17 [DEBUG] MAVLINK [MISSION_CURRENT] MISSION_CURRENT {seq : 0, total : 0, mission_state : 1, mission_mode : 0}
2025-11-18 17:43:17 [DEBUG] MAVLINK [SERVO_OUTPUT_RAW] SERVO_OUTPUT_RAW {time_usec : 339550666, port : 0, servo1_raw : 1000, servo2_raw : 1000, servo3_raw : 1000, servo4_raw : 1000, servo5_raw : 0, servo6_raw : 0, servo7_raw : 0, servo8_raw : 0, servo9_raw : 0, servo10_raw : 0, servo11_raw : 0, servo12_raw : 0, servo13_raw : 0, servo14_raw : 0, servo15_raw : 0, servo16_raw : 0}
2025-11-18 17:43:17 [DEBUG] MAVLINK [RC_CHANNELS] RC_CHANNELS {time_boot_ms : 339550, chancount : 0, chan1_raw : 0, chan2_raw : 0, chan3_raw : 0, chan4_raw : 0, chan5_raw : 0, chan6_raw : 0, chan7_raw : 0, chan8_raw : 0, chan9_raw : 0, chan10_raw : 0, chan11_raw : 0, chan12_raw : 0, chan13_raw : 0, chan14_raw : 0, chan15_raw : 0, chan16_raw : 0, chan17_raw : 0, chan18_raw : 0, rssi : 255}
2025-11-18 17:43:17 [DEBUG] MAVLINK [RAW_IMU] RAW_IMU {time_usec : 339553162, xacc : 11, yacc : 78, zacc : -998, xgyro : -1, ygyro : 0, zgyro : 0, xmag : -109, ymag : -294, zmag : 101, id : 0, temperature : 4480}
2025-11-18 17:43:17 [DEBUG] MAVLINK [SCALED_IMU2] SCALED_IMU2 {time_boot_ms : 339553, xacc : 13, yacc : 74, zacc : -996, xgyro : 0, ygyro : -1, zgyro : 0, xmag : -158, ymag : -377, zmag : 154, temperature : 4853}
2025-11-18 17:43:17 [DEBUG] MAVLINK [SCALED_IMU3] SCALED_IMU3 {time_boot_ms : 339553, xacc : 19, yacc : 65, zacc : -998, xgyro : 0, ygyro : -1, zgyro : 1, xmag : 0, ymag : 0, zmag : 0, temperature : 4760}
2025-11-18 17:43:17 [DEBUG] MAVLINK [SCALED_PRESSURE] SCALED_PRESSURE {time_boot_ms : 339553, press_abs : 949.0462036132812, press_diff : 0.0, temperature : 4653, temperature_press_diff : 0}
2025-11-18 17:43:17 [DEBUG] MAVLINK [SCALED_PRESSURE2] SCALED_PRESSURE2 {time_boot_ms : 339553, press_abs : 949.15576171875, press_diff : 0.0, temperature : 4376, temperature_press_diff : 0}
2025-11-18 17:43:17 [DEBUG] MAVLINK [GPS_RAW_INT] GPS_RAW_INT {time_usec : 339392000, fix_type : 4, lat : 174481085, lon : 783809846, alt : 573140, eph : 77, epv : 138, vel : 1, cog : 18517, satellites_visible : 17, alt_ellipsoid : 499045, h_acc : 1266, v_acc : 1993, vel_acc : 338, hdg_acc : 0, yaw : 0}
2025-11-18 17:43:17 [DEBUG] MAVLINK [SYSTEM_TIME] SYSTEM_TIME {time_unix_usec : 1763467997441127, time_boot_ms : 339553}
2025-11-18 17:43:17 [DEBUG] MAVLINK [WIND] WIND {direction : -180.0, speed : 0.0, speed_z : 0.0}
2025-11-18 17:43:17 [DEBUG] MAVLINK [TERRAIN_REPORT] TERRAIN_REPORT {lat : 174481076, lon : 783809847, spacing : 100, terrain_height : 579.9402465820312, current_height : 0.009740455076098442, pending : 0, loaded : 504}
2025-11-18 17:43:17 [DEBUG] MAVLINK [EKF_STATUS_REPORT] EKF_STATUS_REPORT {flags : 831, velocity_variance : 0.019014742225408554, pos_horiz_variance : 0.011349975131452084, pos_vert_variance : 0.0338333360850811, compass_variance : 0.01310964860022068, terrain_alt_variance : 0.0, airspeed_variance : 0.0}
2025-11-18 17:43:17 [DEBUG] MAVLINK [LOCAL_POSITION_NED] LOCAL_POSITION_NED {time_boot_ms : 339555, x : -0.48453807830810547, y : -1.7388423681259155, z : 0.8452287316322327, vx : -0.006535796914249659, vy : -0.00016847989172674716, vz : -0.016461029648780823}
2025-11-18 17:43:17 [DEBUG] MAVLINK [VIBRATION] VIBRATION {time_usec : 339555681, vibration_x : 0.0083110760897398, vibration_y : 0.00793746579438448, vibration_z : 0.008639216423034668, clipping_0 : 0, clipping_1 : 0, clipping_2 : 0}
2025-11-18 17:43:17 [DEBUG] MAVLINK [BATTERY_STATUS] BATTERY_STATUS {id : 0, battery_function : 0, type : 0, temperature : 32767, voltages : [11034, 65535, 65535, 65535, 65535, 65535, 65535, 65535, 65535, 65535], current_battery : 2, current_consumed : 1, energy_consumed : 0, battery_remaining : 99, time_remaining : 0, charge_state : 1, voltages_ext : [0, 0, 0, 0], mode : 0, fault_bitmask : 0}
2025-11-18 17:43:17 [DEBUG] MAVLINK [MCU_STATUS] MCU_STATUS {id : 0, MCU_temperature : 4533, MCU_voltage : 3286, MCU_voltage_min : 3277, MCU_voltage_max : 3293}
2025-11-18 17:43:17 [INFO] Waiting for motors to arm...
2025-11-18 17:43:17 [DEBUG] MAVLINK [HEARTBEAT] HEARTBEAT {type : 6, autopilot : 8, base_mode : 192, custom_mode : 0, system_status : 4, mavlink_version : 3}
2025-11-18 17:43:17 [DEBUG] MAVLINK [AHRS] AHRS {omegaIx : 0.0002644074847921729, omegaIy : -6.098648373153992e-05, omegaIz : -0.0009936918504536152, accel_weight : 0.0, renorm_val : 0.0, error_rp : 0.0014512051129713655, error_yaw : 0.007872896268963814}
2025-11-18 17:43:17 [DEBUG] MAVLINK [AHRS2] AHRS2 {roll : -0.05504893884062767, pitch : -0.0029500117525458336, yaw : 1.9258464574813843, altitude : 578.9099731445312, lat : 174481085, lng : 783809846}
2025-11-18 17:43:17 [DEBUG] MAVLINK [ATTITUDE] ATTITUDE {time_boot_ms : 339800, roll : -0.053200606256723404, pitch : -0.002706540748476982, yaw : 1.9031888246536255, rollspeed : -1.1546944733709097e-06, pitchspeed : -0.0003541580226738006, yawspeed : 0.0004184824647381902}
2025-11-18 17:43:17 [DEBUG] MAVLINK [GLOBAL_POSITION_INT] GLOBAL_POSITION_INT {time_boot_ms : 339800, lat : 174481076, lon : 783809847, alt : 579950, relative_alt : 18, vx : 0, vy : 0, vz : -1, hdg : 10904}
2025-11-18 17:43:17 [DEBUG] MAVLINK [VFR_HUD] VFR_HUD {airspeed : 0.017690731212496758, groundspeed : 0.006533160340040922, heading : 109, throttle : 0, alt : 579.9500122070312, climb : 0.01644018664956093}
2025-11-18 17:43:17 [DEBUG] MAVLINK [SYS_STATUS] SYS_STATUS {onboard_control_sensors_present : 1399913519, onboard_control_sensors_enabled : 1130429487, onboard_control_sensors_health : 1198586895, load : 302, voltage_battery : 11034, current_battery : 1, battery_remaining : 99, drop_rate_comm : 0, errors_comm : 0, errors_count1 : 0, errors_count2 : 0, errors_count3 : 0, errors_count4 : 0}
2025-11-18 17:43:17 [DEBUG] MAVLINK [POWER_STATUS] POWER_STATUS {Vcc : 5276, Vservo : 5016, flags : 5}
2025-11-18 17:43:17 [DEBUG] MAVLINK [MEMINFO] MEMINFO {brkval : 0, freemem : 65535, freemem32 : 563624}
2025-11-18 17:43:17 [DEBUG] MAVLINK [NAV_CONTROLLER_OUTPUT] NAV_CONTROLLER_OUTPUT {nav_roll : -0.00019635666103567928, nav_pitch : 0.0003464968176558614, nav_bearing : 109, target_bearing : 0, wp_dist : 0, alt_error : 0.0, aspd_error : 0.0, xtrack_error : 0.0}
2025-11-18 17:43:17 [DEBUG] MAVLINK [MISSION_CURRENT] MISSION_CURRENT {seq : 0, total : 0, mission_state : 1, mission_mode : 0}
2025-11-18 17:43:17 [DEBUG] MAVLINK [SERVO_OUTPUT_RAW] SERVO_OUTPUT_RAW {time_usec : 339800949, port : 0, servo1_raw : 1000, servo2_raw : 1000, servo3_raw : 1000, servo4_raw : 1000, servo5_raw : 0, servo6_raw : 0, servo7_raw : 0, servo8_raw : 0, servo9_raw : 0, servo10_raw : 0, servo11_raw : 0, servo12_raw : 0, servo13_raw : 0, servo14_raw : 0, servo15_raw : 0, servo16_raw : 0}
2025-11-18 17:43:17 [DEBUG] MAVLINK [RC_CHANNELS] RC_CHANNELS {time_boot_ms : 339803, chancount : 0, chan1_raw : 0, chan2_raw : 0, chan3_raw : 0, chan4_raw : 0, chan5_raw : 0, chan6_raw : 0, chan7_raw : 0, chan8_raw : 0, chan9_raw : 0, chan10_raw : 0, chan11_raw : 0, chan12_raw : 0, chan13_raw : 0, chan14_raw : 0, chan15_raw : 0, chan16_raw : 0, chan17_raw : 0, chan18_raw : 0, rssi : 255}
2025-11-18 17:43:17 [DEBUG] MAVLINK [RAW_IMU] RAW_IMU {time_usec : 339803623, xacc : 11, yacc : 78, zacc : -998, xgyro : 0, ygyro : 0, zgyro : 1, xmag : -106, ymag : -295, zmag : 100, id : 0, temperature : 4480}
2025-11-18 17:43:17 [DEBUG] MAVLINK [SCALED_IMU2] SCALED_IMU2 {time_boot_ms : 339803, xacc : 16, yacc : 75, zacc : -998, xgyro : 0, ygyro : -1, zgyro : 0, xmag : -156, ymag : -382, zmag : 150, temperature : 4853}
2025-11-18 17:43:17 [DEBUG] MAVLINK [SCALED_IMU3] SCALED_IMU3 {time_boot_ms : 339803, xacc : 19, yacc : 67, zacc : -1002, xgyro : -1, ygyro : 0, zgyro : 0, xmag : 0, ymag : 0, zmag : 0, temperature : 4760}
2025-11-18 17:43:17 [DEBUG] MAVLINK [SCALED_PRESSURE] SCALED_PRESSURE {time_boot_ms : 339803, press_abs : 949.0612182617188, press_diff : 0.0, temperature : 4653, temperature_press_diff : 0}
2025-11-18 17:43:17 [DEBUG] MAVLINK [SCALED_PRESSURE2] SCALED_PRESSURE2 {time_boot_ms : 339803, press_abs : 949.1534423828125, press_diff : 0.0, temperature : 4375, temperature_press_diff : 0}
2025-11-18 17:43:17 [DEBUG] MAVLINK [GPS_RAW_INT] GPS_RAW_INT {time_usec : 339792000, fix_type : 4, lat : 174481086, lon : 783809844, alt : 573120, eph : 77, epv : 138, vel : 0, cog : 18517, satellites_visible : 17, alt_ellipsoid : 499025, h_acc : 1265, v_acc : 1995, vel_acc : 353, hdg_acc : 0, yaw : 0}
2025-11-18 17:43:17 [DEBUG] MAVLINK [SYSTEM_TIME] SYSTEM_TIME {time_unix_usec : 1763467997691611, time_boot_ms : 339803}
2025-11-18 17:43:17 [DEBUG] MAVLINK [WIND] WIND {direction : -180.0, speed : 0.0, speed_z : 0.0}
2025-11-18 17:43:17 [DEBUG] MAVLINK [TERRAIN_REPORT] TERRAIN_REPORT {lat : 174481076, lon : 783809847, spacing : 100, terrain_height : 579.9402465820312, current_height : 0.009740455076098442, pending : 0, loaded : 504}
2025-11-18 17:43:17 [DEBUG] MAVLINK [EKF_STATUS_REPORT] EKF_STATUS_REPORT {flags : 831, velocity_variance : 0.012646789662539959, pos_horiz_variance : 0.01168602891266346, pos_vert_variance : 0.01749700866639614, compass_variance : 0.007886435836553574, terrain_alt_variance : 0.0, airspeed_variance : 0.0}
2025-11-18 17:43:17 [DEBUG] MAVLINK [LOCAL_POSITION_NED] LOCAL_POSITION_NED {time_boot_ms : 339806, x : -0.4818654954433441, y : -1.7404340505599976, z : 0.841884970664978, vx : -0.006341667380183935, vy : -0.0006093208794482052, vz : -0.016263898462057114}
2025-11-18 17:43:17 [DEBUG] MAVLINK [VIBRATION] VIBRATION {time_usec : 339806029, vibration_x : 0.00741264084354043, vibration_y : 0.006524343509227037, vibration_z : 0.008694780059158802, clipping_0 : 0, clipping_1 : 0, clipping_2 : 0}
2025-11-18 17:43:17 [DEBUG] MAVLINK [BATTERY_STATUS] BATTERY_STATUS {id : 0, battery_function : 0, type : 0, temperature : 32767, voltages : [11034, 65535, 65535, 65535, 65535, 65535, 65535, 65535, 65535, 65535], current_battery : 1, current_consumed : 1, energy_consumed : 0, battery_remaining : 99, time_remaining : 0, charge_state : 1, voltages_ext : [0, 0, 0, 0], mode : 0, fault_bitmask : 0}
2025-11-18 17:43:17 [DEBUG] MAVLINK [MCU_STATUS] MCU_STATUS {id : 0, MCU_temperature : 4534, MCU_voltage : 3286, MCU_voltage_min : 3279, MCU_voltage_max : 3294}
2025-11-18 17:43:18 [DEBUG] MAVLINK [AHRS] AHRS {omegaIx : 0.00026124913711100817, omegaIy : -5.6417724408674985e-05, omegaIz : -0.0009913808899000287, accel_weight : 0.0, renorm_val : 0.0, error_rp : 0.0015398659743368626, error_yaw : 0.009463279508054256}
2025-11-18 17:43:18 [DEBUG] MAVLINK [AHRS2] AHRS2 {roll : -0.05505138263106346, pitch : -0.002980361692607403, yaw : 1.9259462356567383, altitude : 579.3399658203125, lat : 174481087, lng : 783809842}
2025-11-18 17:43:18 [DEBUG] MAVLINK [ATTITUDE] ATTITUDE {time_boot_ms : 340050, roll : -0.053218040615320206, pitch : -0.002660926431417465, yaw : 1.9033677577972412, rollspeed : 0.0003156817692797631, pitchspeed : -0.00020044163102284074, yawspeed : 0.0005441878456622362}
2025-11-18 17:43:18 [DEBUG] MAVLINK [GLOBAL_POSITION_INT] GLOBAL_POSITION_INT {time_boot_ms : 340050, lat : 174481077, lon : 783809847, alt : 579960, relative_alt : 24, vx : 0, vy : 0, vz : -1, hdg : 10905}
2025-11-18 17:43:18 [DEBUG] MAVLINK [VFR_HUD] VFR_HUD {airspeed : 0.016652023419737816, groundspeed : 0.0048947385512292385, heading : 109, throttle : 0, alt : 579.9599609375, climb : 0.015916388481855392}
2025-11-18 17:43:18 [DEBUG] MAVLINK [SYS_STATUS] SYS_STATUS {onboard_control_sensors_present : 1399913519, onboard_control_sensors_enabled : 1130429487, onboard_control_sensors_health : 1198586895, load : 322, voltage_battery : 11029, current_battery : 2, battery_remaining : 99, drop_rate_comm : 0, errors_comm : 0, errors_count1 : 0, errors_count2 : 0, errors_count3 : 0, errors_count4 : 0}
2025-11-18 17:43:18 [DEBUG] MAVLINK [POWER_STATUS] POWER_STATUS {Vcc : 5278, Vservo : 5011, flags : 5}
2025-11-18 17:43:18 [DEBUG] MAVLINK [MEMINFO] MEMINFO {brkval : 0, freemem : 65535, freemem32 : 563624}
2025-11-18 17:43:18 [DEBUG] MAVLINK [NAV_CONTROLLER_OUTPUT] NAV_CONTROLLER_OUTPUT {nav_roll : -0.0001963566173799336, nav_pitch : 0.0003464968758635223, nav_bearing : 109, target_bearing : 0, wp_dist : 0, alt_error : 0.0, aspd_error : 0.0, xtrack_error : 0.0}
2025-11-18 17:43:18 [DEBUG] MAVLINK [MISSION_CURRENT] MISSION_CURRENT {seq : 0, total : 0, mission_state : 1, mission_mode : 0}
2025-11-18 17:43:18 [DEBUG] MAVLINK [SERVO_OUTPUT_RAW] SERVO_OUTPUT_RAW {time_usec : 340050545, port : 0, servo1_raw : 1000, servo2_raw : 1000, servo3_raw : 1000, servo4_raw : 1000, servo5_raw : 0, servo6_raw : 0, servo7_raw : 0, servo8_raw : 0, servo9_raw : 0, servo10_raw : 0, servo11_raw : 0, servo12_raw : 0, servo13_raw : 0, servo14_raw : 0, servo15_raw : 0, servo16_raw : 0}
