2025-11-18 17:45:34 [INFO] Logger initialized.
2025-11-18 17:45:34 [INFO] Log file: logs/drone_log_2025-11-18_17-45-34.log
2025-11-18 17:45:40 [INFO] Connected to FC on /dev/ttyACM0@115200
2025-11-18 17:45:40 [INFO] Full MAVLink telemetry logging enabled.
2025-11-18 17:45:40 [INFO] Starting square mission...
2025-11-18 17:45:40 [INFO] Home (A) saved before takeoff: lat=17.448116, lon=78.3809939
2025-11-18 17:45:40 [INFO] Checking pre-arm conditions...
2025-11-18 17:45:40 [INFO] Saved HOME: lat=17.448116, lon=78.3809939, alt=-0.122
2025-11-18 17:45:40 [INFO] Waiting for GUIDED...
2025-11-18 17:45:40 [DEBUG] MAVLINK [COMMAND_ACK] COMMAND_ACK {command : 176, result : 0}
2025-11-18 17:45:40 [DEBUG] MAVLINK [HEARTBEAT] HEARTBEAT {type : 2, autopilot : 3, base_mode : 89, custom_mode : 4, system_status : 5, mavlink_version : 3}
2025-11-18 17:45:41 [DEBUG] MAVLINK [AHRS] AHRS {omegaIx : 0.00017599166312720627, omegaIy : 0.00012473348760977387, omegaIz : -0.001578803756274283, accel_weight : 0.0, renorm_val : 0.0, error_rp : 0.0011960515985265374, error_yaw : 0.0018330372404307127}
2025-11-18 17:45:41 [DEBUG] MAVLINK [AHRS2] AHRS2 {roll : -0.04666430130600929, pitch : -0.00015237466141115874, yaw : 1.9523745775222778, altitude : 578.739990234375, lat : 174481170, lng : 783809948}
2025-11-18 17:45:41 [DEBUG] MAVLINK [ATTITUDE] ATTITUDE {time_boot_ms : 483037, roll : -0.03129555284976959, pitch : -0.0032930467277765274, yaw : 1.9496253728866577, rollspeed : 1.5533558325842023e-05, pitchspeed : 0.00015410022751893848, yawspeed : -0.00023547979071736336}
2025-11-18 17:45:41 [DEBUG] MAVLINK [GLOBAL_POSITION_INT] GLOBAL_POSITION_INT {time_boot_ms : 483037, lat : 174481161, lon : 783809938, alt : 579740, relative_alt : -124, vx : 1, vy : 0, vz : 0, hdg : 11170}
2025-11-18 17:45:41 [DEBUG] MAVLINK [VFR_HUD] VFR_HUD {airspeed : 0.0139100831001997, groundspeed : 0.013883072882890701, heading : 111, throttle : 0, alt : 579.739990234375, climb : -0.0008664157357998192}
2025-11-18 17:45:41 [DEBUG] MAVLINK [SYS_STATUS] SYS_STATUS {onboard_control_sensors_present : 1399913519, onboard_control_sensors_enabled : 1113652271, onboard_control_sensors_health : 1198586927, load : 314, voltage_battery : 10961, current_battery : 2, battery_remaining : 95, drop_rate_comm : 0, errors_comm : 0, errors_count1 : 0, errors_count2 : 0, errors_count3 : 0, errors_count4 : 0}
2025-11-18 17:45:41 [DEBUG] MAVLINK [POWER_STATUS] POWER_STATUS {Vcc : 5282, Vservo : 5043, flags : 5}
2025-11-18 17:45:41 [DEBUG] MAVLINK [MEMINFO] MEMINFO {brkval : 0, freemem : 65535}
2025-11-18 17:45:41 [DEBUG] MAVLINK [NAV_CONTROLLER_OUTPUT] NAV_CONTROLLER_OUTPUT {nav_roll : -0.00024786152062006295, nav_pitch : -0.0003053530235774815, nav_bearing : 111, target_bearing : 0, wp_dist : 0, alt_error : 0.0, aspd_error : 0.0, xtrack_error : 0.0}
2025-11-18 17:45:41 [DEBUG] MAVLINK [MISSION_CURRENT] MISSION_CURRENT {seq : 0}
2025-11-18 17:45:41 [DEBUG] MAVLINK [SERVO_OUTPUT_RAW] SERVO_OUTPUT_RAW {time_usec : 483038049, port : 0, servo1_raw : 1000, servo2_raw : 1000, servo3_raw : 1000, servo4_raw : 1000, servo5_raw : 0, servo6_raw : 0, servo7_raw : 0, servo8_raw : 0}
2025-11-18 17:45:41 [DEBUG] MAVLINK [RC_CHANNELS] RC_CHANNELS {time_boot_ms : 483038, chancount : 0, chan1_raw : 0, chan2_raw : 0, chan3_raw : 0, chan4_raw : 0, chan5_raw : 0, chan6_raw : 0, chan7_raw : 0, chan8_raw : 0, chan9_raw : 0, chan10_raw : 0, chan11_raw : 0, chan12_raw : 0, chan13_raw : 0, chan14_raw : 0, chan15_raw : 0, chan16_raw : 0, chan17_raw : 0, chan18_raw : 0, rssi : 255}
2025-11-18 17:45:41 [DEBUG] MAVLINK [RAW_IMU] RAW_IMU {time_usec : 483038082, xacc : 13, yacc : 70, zacc : -999, xgyro : 0, ygyro : 0, zgyro : 1, xmag : -130, ymag : -319, zmag : 100}
2025-11-18 17:45:41 [DEBUG] MAVLINK [SCALED_IMU2] SCALED_IMU2 {time_boot_ms : 483038, xacc : 15, yacc : 66, zacc : -997, xgyro : 0, ygyro : 0, zgyro : -1, xmag : -149, ymag : -351, zmag : 166}
2025-11-18 17:45:41 [DEBUG] MAVLINK [SCALED_IMU3] SCALED_IMU3 {time_boot_ms : 483038, xacc : 21, yacc : 58, zacc : -998, xgyro : -3, ygyro : 0, zgyro : 0, xmag : 0, ymag : 0, zmag : 0}
2025-11-18 17:45:41 [DEBUG] MAVLINK [SCALED_PRESSURE] SCALED_PRESSURE {time_boot_ms : 483038, press_abs : 949.1160888671875, press_diff : 0.0, temperature : 4657}
2025-11-18 17:45:41 [DEBUG] MAVLINK [SCALED_PRESSURE2] SCALED_PRESSURE2 {time_boot_ms : 483038, press_abs : 949.1720581054688, press_diff : 0.0, temperature : 4360}
2025-11-18 17:45:41 [DEBUG] MAVLINK [GPS_RAW_INT] GPS_RAW_INT {time_usec : 482912000, fix_type : 4, lat : 174481170, lon : 783809949, alt : 574740, eph : 69, epv : 112, vel : 7, cog : 9919, satellites_visible : 18}
2025-11-18 17:45:41 [DEBUG] MAVLINK [SYSTEM_TIME] SYSTEM_TIME {time_unix_usec : 1763468140928763, time_boot_ms : 483040}
2025-11-18 17:45:41 [DEBUG] MAVLINK [WIND] WIND {direction : -180.0, speed : 0.0, speed_z : 0.0}
2025-11-18 17:45:41 [DEBUG] MAVLINK [TERRAIN_REPORT] TERRAIN_REPORT {lat : 174481161, lon : 783809938, spacing : 100, terrain_height : 579.8832397460938, current_height : -0.14325270056724548, pending : 0, loaded : 504}
2025-11-18 17:45:41 [DEBUG] MAVLINK [EKF_STATUS_REPORT] EKF_STATUS_REPORT {flags : 831, velocity_variance : 0.026906564831733704, pos_horiz_variance : 0.014932375401258469, pos_vert_variance : 0.00730173010379076, compass_variance : 0.0007018665201030672, terrain_alt_variance : 0.0}
2025-11-18 17:45:41 [DEBUG] MAVLINK [LOCAL_POSITION_NED] LOCAL_POSITION_NED {time_boot_ms : 483041, x : 0.46518218517303467, y : -0.7660157680511475, z : 1.0540986061096191, vx : 0.011887479573488235, vy : -0.00782130379229784, vz : 0.000846139679197222}
2025-11-18 17:45:41 [DEBUG] MAVLINK [VIBRATION] VIBRATION {time_usec : 483043344, vibration_x : 0.008215218782424927, vibration_y : 0.00814293883740902, vibration_z : 0.009594974108040333, clipping_0 : 0, clipping_1 : 0, clipping_2 : 0}
2025-11-18 17:45:41 [DEBUG] MAVLINK [BATTERY_STATUS] BATTERY_STATUS {id : 0, battery_function : 0, type : 0, temperature : 32767, voltages : [10961, 65535, 65535, 65535, 65535, 65535, 65535, 65535, 65535, 65535], current_battery : 2, current_consumed : 217, energy_consumed : 78, battery_remaining : 95}
2025-11-18 17:45:41 [DEBUG] MAVLINK [UNKNOWN_11039] UNKNOWN_11039 {data:['fd', '8', '0', '0', '60', '1', '1', '1f', '2b', '0', 'ad', '11', 'd6', 'c', 'd1', 'c', 'dd', 'c', 'f', '14']}
2025-11-18 17:45:41 [DEBUG] MAVLINK [HEARTBEAT] HEARTBEAT {type : 2, autopilot : 3, base_mode : 89, custom_mode : 4, system_status : 5, mavlink_version : 3}
2025-11-18 17:45:41 [DEBUG] MAVLINK [HEARTBEAT] HEARTBEAT {type : 27, autopilot : 8, base_mode : 4, custom_mode : 0, system_status : 4, mavlink_version : 3}
2025-11-18 17:45:41 [DEBUG] MAVLINK [AHRS] AHRS {omegaIx : 0.0001776698773028329, omegaIy : 0.00012221909128129482, omegaIz : -0.0015779695240780711, accel_weight : 0.0, renorm_val : 0.0, error_rp : 0.0011733154533430934, error_yaw : 0.001453199191018939}
2025-11-18 17:45:41 [DEBUG] MAVLINK [AHRS2] AHRS2 {roll : -0.04664201661944389, pitch : -0.00016502852668054402, yaw : 1.9524728059768677, altitude : 578.7899780273438, lat : 174481172, lng : 783809949}
2025-11-18 17:45:41 [DEBUG] MAVLINK [ATTITUDE] ATTITUDE {time_boot_ms : 483287, roll : -0.03127102926373482, pitch : -0.003219014033675194, yaw : 1.9495121240615845, rollspeed : 5.5769509344827384e-05, pitchspeed : -0.00015413769870065153, yawspeed : -0.00030741270165890455}
2025-11-18 17:45:41 [DEBUG] MAVLINK [GLOBAL_POSITION_INT] GLOBAL_POSITION_INT {time_boot_ms : 483287, lat : 174481162, lon : 783809938, alt : 579740, relative_alt : -123, vx : 1, vy : -1, vz : 0, hdg : 11169}
2025-11-18 17:45:41 [DEBUG] MAVLINK [VFR_HUD] VFR_HUD {airspeed : 0.019363045692443848, groundspeed : 0.019363023340702057, heading : 111, throttle : 0, alt : 579.739990234375, climb : 2.9136052035028115e-05}
2025-11-18 17:45:41 [DEBUG] MAVLINK [SYS_STATUS] SYS_STATUS {onboard_control_sensors_present : 1399913519, onboard_control_sensors_enabled : 1113652271, onboard_control_sensors_health : 1198586927, load : 308, voltage_battery : 10959, current_battery : 2, battery_remaining : 95, drop_rate_comm : 0, errors_comm : 0, errors_count1 : 0, errors_count2 : 0, errors_count3 : 0, errors_count4 : 0}
2025-11-18 17:45:41 [DEBUG] MAVLINK [POWER_STATUS] POWER_STATUS {Vcc : 5285, Vservo : 5026, flags : 5}
2025-11-18 17:45:41 [DEBUG] MAVLINK [MEMINFO] MEMINFO {brkval : 0, freemem : 65535}
2025-11-18 17:45:41 [DEBUG] MAVLINK [NAV_CONTROLLER_OUTPUT] NAV_CONTROLLER_OUTPUT {nav_roll : -0.0002478614042047411, nav_pitch : -0.00030535319820046425, nav_bearing : 111, target_bearing : 0, wp_dist : 0, alt_error : 0.0, aspd_error : 0.0, xtrack_error : 0.0}
2025-11-18 17:45:41 [DEBUG] MAVLINK [MISSION_CURRENT] MISSION_CURRENT {seq : 0}
2025-11-18 17:45:41 [DEBUG] MAVLINK [SERVO_OUTPUT_RAW] SERVO_OUTPUT_RAW {time_usec : 483288059, port : 0, servo1_raw : 1000, servo2_raw : 1000, servo3_raw : 1000, servo4_raw : 1000, servo5_raw : 0, servo6_raw : 0, servo7_raw : 0, servo8_raw : 0}
2025-11-18 17:45:41 [DEBUG] MAVLINK [RC_CHANNELS] RC_CHANNELS {time_boot_ms : 483288, chancount : 0, chan1_raw : 0, chan2_raw : 0, chan3_raw : 0, chan4_raw : 0, chan5_raw : 0, chan6_raw : 0, chan7_raw : 0, chan8_raw : 0, chan9_raw : 0, chan10_raw : 0, chan11_raw : 0, chan12_raw : 0, chan13_raw : 0, chan14_raw : 0, chan15_raw : 0, chan16_raw : 0, chan17_raw : 0, chan18_raw : 0, rssi : 255}
2025-11-18 17:45:41 [DEBUG] MAVLINK [RAW_IMU] RAW_IMU {time_usec : 483288102, xacc : 13, yacc : 70, zacc : -998, xgyro : 0, ygyro : 0, zgyro : 1, xmag : -130, ymag : -321, zmag : 102}
2025-11-18 17:45:41 [DEBUG] MAVLINK [SCALED_IMU2] SCALED_IMU2 {time_boot_ms : 483290, xacc : 17, yacc : 68, zacc : -998, xgyro : 2, ygyro : 0, zgyro : -1, xmag : -158, ymag : -378, zmag : 146}
2025-11-18 17:45:41 [DEBUG] MAVLINK [SCALED_IMU3] SCALED_IMU3 {time_boot_ms : 483290, xacc : 23, yacc : 58, zacc : -1000, xgyro : 0, ygyro : -2, zgyro : -1, xmag : 0, ymag : 0, zmag : 0}
2025-11-18 17:45:41 [DEBUG] MAVLINK [SCALED_PRESSURE] SCALED_PRESSURE {time_boot_ms : 483290, press_abs : 949.11083984375, press_diff : 0.0, temperature : 4658}
2025-11-18 17:45:41 [DEBUG] MAVLINK [SCALED_PRESSURE2] SCALED_PRESSURE2 {time_boot_ms : 483290, press_abs : 949.1946411132812, press_diff : 0.0, temperature : 4360}
2025-11-18 17:45:41 [DEBUG] MAVLINK [GPS_RAW_INT] GPS_RAW_INT {time_usec : 483112000, fix_type : 4, lat : 174481172, lon : 783809949, alt : 574790, eph : 69, epv : 112, vel : 1, cog : 9919, satellites_visible : 18}
2025-11-18 17:45:41 [DEBUG] MAVLINK [SYSTEM_TIME] SYSTEM_TIME {time_unix_usec : 1763468141178599, time_boot_ms : 483290}
2025-11-18 17:45:41 [DEBUG] MAVLINK [WIND] WIND {direction : -180.0, speed : 0.0, speed_z : 0.0}
2025-11-18 17:45:41 [DEBUG] MAVLINK [TERRAIN_REPORT] TERRAIN_REPORT {lat : 174481162, lon : 783809938, spacing : 100, terrain_height : 579.88330078125, current_height : -0.14331373572349548, pending : 0, loaded : 504}
2025-11-18 17:45:41 [DEBUG] MAVLINK [EKF_STATUS_REPORT] EKF_STATUS_REPORT {flags : 831, velocity_variance : 0.011171967722475529, pos_horiz_variance : 0.016138141974806786, pos_vert_variance : 0.002827499993145466, compass_variance : 3.5235916584497318e-06, terrain_alt_variance : 0.0}
2025-11-18 17:45:41 [DEBUG] MAVLINK [LOCAL_POSITION_NED] LOCAL_POSITION_NED {time_boot_ms : 483290, x : 0.47676536440849304, y : -0.7702226638793945, z : 1.0538239479064941, vx : 0.013698507100343704, vy : -0.013806366361677647, vz : -6.253682659007609e-05}
2025-11-18 17:45:41 [DEBUG] MAVLINK [VIBRATION] VIBRATION {time_usec : 483290906, vibration_x : 0.00764642097055912, vibration_y : 0.008393709547817707, vibration_z : 0.007958137430250645, clipping_0 : 0, clipping_1 : 0, clipping_2 : 0}
2025-11-18 17:45:41 [DEBUG] MAVLINK [BATTERY_STATUS] BATTERY_STATUS {id : 0, battery_function : 0, type : 0, temperature : 32767, voltages : [10959, 65535, 65535, 65535, 65535, 65535, 65535, 65535, 65535, 65535], current_battery : 2, current_consumed : 217, energy_consumed : 78, battery_remaining : 95}
2025-11-18 17:45:41 [DEBUG] MAVLINK [UNKNOWN_11039] UNKNOWN_11039 {data:['fd', '8', '0', '0', '7b', '1', '1', '1f', '2b', '0', 'ad', '11', 'd6', 'c', 'd0', 'c', 'df', 'c', '1b', '81']}
2025-11-18 17:45:41 [DEBUG] MAVLINK [AHRS] AHRS {omegaIx : 0.0001815332070691511, omegaIy : 0.00012119903112761676, omegaIz : -0.0015773955965414643, accel_weight : 0.0, renorm_val : 0.0, error_rp : 0.0011850506998598576, error_yaw : 0.002129130531102419}
2025-11-18 17:45:41 [DEBUG] MAVLINK [AHRS2] AHRS2 {roll : -0.04661693796515465, pitch : -0.00020257777941878885, yaw : 1.952527403831482, altitude : 578.719970703125, lat : 174481172, lng : 783809949}
2025-11-18 17:45:41 [DEBUG] MAVLINK [ATTITUDE] ATTITUDE {time_boot_ms : 483537, roll : -0.03118707984685898, pitch : -0.003261667676270008, yaw : 1.9494130611419678, rollspeed : 0.0002901318948715925, pitchspeed : -6.472227687481791e-05, yawspeed : -0.00013844831846654415}
2025-11-18 17:45:41 [DEBUG] MAVLINK [GLOBAL_POSITION_INT] GLOBAL_POSITION_INT {time_boot_ms : 483537, lat : 174481163, lon : 783809938, alt : 579740, relative_alt : -123, vx : 1, vy : -1, vz : 0, hdg : 11169}
2025-11-18 17:45:41 [DEBUG] MAVLINK [VFR_HUD] VFR_HUD {airspeed : 0.02132738195359707, groundspeed : 0.021318860352039337, heading : 111, throttle : 0, alt : 579.739990234375, climb : 0.0006028519128449261}
2025-11-18 17:45:41 [DEBUG] MAVLINK [SYS_STATUS] SYS_STATUS {onboard_control_sensors_present : 1399913519, onboard_control_sensors_enabled : 1113652271, onboard_control_sensors_health : 1198586927, load : 306, voltage_battery : 10960, current_battery : 1, battery_remaining : 95, drop_rate_comm : 0, errors_comm : 0, errors_count1 : 0, errors_count2 : 0, errors_count3 : 0, errors_count4 : 0}
2025-11-18 17:45:41 [DEBUG] MAVLINK [POWER_STATUS] POWER_STATUS {Vcc : 5282, Vservo : 5026, flags : 5}
2025-11-18 17:45:41 [DEBUG] MAVLINK [MEMINFO] MEMINFO {brkval : 0, freemem : 65535}
2025-11-18 17:45:41 [DEBUG] MAVLINK [NAV_CONTROLLER_OUTPUT] NAV_CONTROLLER_OUTPUT {nav_roll : -0.00024786131689324975, nav_pitch : -0.00030535319820046425, nav_bearing : 111, target_bearing : 0, wp_dist : 0, alt_error : 0.0, aspd_error : 0.0, xtrack_error : 0.0}
2025-11-18 17:45:41 [DEBUG] MAVLINK [MISSION_CURRENT] MISSION_CURRENT {seq : 0}
2025-11-18 17:45:41 [DEBUG] MAVLINK [SERVO_OUTPUT_RAW] SERVO_OUTPUT_RAW {time_usec : 483538077, port : 0, servo1_raw : 1000, servo2_raw : 1000, servo3_raw : 1000, servo4_raw : 1000, servo5_raw : 0, servo6_raw : 0, servo7_raw : 0, servo8_raw : 0}
2025-11-18 17:45:41 [DEBUG] MAVLINK [RC_CHANNELS] RC_CHANNELS {time_boot_ms : 483538, chancount : 0, chan1_raw : 0, chan2_raw : 0, chan3_raw : 0, chan4_raw : 0, chan5_raw : 0, chan6_raw : 0, chan7_raw : 0, chan8_raw : 0, chan9_raw : 0, chan10_raw : 0, chan11_raw : 0, chan12_raw : 0, chan13_raw : 0, chan14_raw : 0, chan15_raw : 0, chan16_raw : 0, chan17_raw : 0, chan18_raw : 0, rssi : 255}
2025-11-18 17:45:41 [DEBUG] MAVLINK [RAW_IMU] RAW_IMU {time_usec : 483538111, xacc : 13, yacc : 70, zacc : -998, xgyro : 0, ygyro : 0, zgyro : 1, xmag : -129, ymag : -320, zmag : 100}
2025-11-18 17:45:41 [DEBUG] MAVLINK [SCALED_IMU2] SCALED_IMU2 {time_boot_ms : 483538, xacc : 15, yacc : 68, zacc : -998, xgyro : 2, ygyro : -1, zgyro : -2, xmag : -147, ymag : -356, zmag : 156}
2025-11-18 17:45:41 [DEBUG] MAVLINK [SCALED_IMU3] SCALED_IMU3 {time_boot_ms : 483538, xacc : 22, yacc : 60, zacc : -1001, xgyro : 0, ygyro : -1, zgyro : -1, xmag : 0, ymag : 0, zmag : 0}
2025-11-18 17:45:41 [DEBUG] MAVLINK [SCALED_PRESSURE] SCALED_PRESSURE {time_boot_ms : 483541, press_abs : 949.1180419921875, press_diff : 0.0, temperature : 4658}
2025-11-18 17:45:41 [DEBUG] MAVLINK [SCALED_PRESSURE2] SCALED_PRESSURE2 {time_boot_ms : 483541, press_abs : 949.1892700195312, press_diff : 0.0, temperature : 4360}
2025-11-18 17:45:41 [DEBUG] MAVLINK [GPS_RAW_INT] GPS_RAW_INT {time_usec : 483512000, fix_type : 4, lat : 174481172, lon : 783809949, alt : 574830, eph : 69, epv : 112, vel : 1, cog : 9919, satellites_visible : 18}
2025-11-18 17:45:41 [DEBUG] MAVLINK [SYSTEM_TIME] SYSTEM_TIME {time_unix_usec : 1763468141429064, time_boot_ms : 483541}
2025-11-18 17:45:41 [DEBUG] MAVLINK [WIND] WIND {direction : -180.0, speed : 0.0, speed_z : 0.0}
2025-11-18 17:45:41 [DEBUG] MAVLINK [TERRAIN_REPORT] TERRAIN_REPORT {lat : 174481163, lon : 783809938, spacing : 100, terrain_height : 579.8833618164062, current_height : -0.14337477087974548, pending : 0, loaded : 504}
2025-11-18 17:45:41 [DEBUG] MAVLINK [EKF_STATUS_REPORT] EKF_STATUS_REPORT {flags : 831, velocity_variance : 0.020364779978990555, pos_horiz_variance : 0.015475559048354626, pos_vert_variance : 0.008807361125946045, compass_variance : 0.0010453910799697042, terrain_alt_variance : 0.0}
2025-11-18 17:45:41 [DEBUG] MAVLINK [LOCAL_POSITION_NED] LOCAL_POSITION_NED {time_boot_ms : 483541, x : 0.48335617780685425, y : -0.7709829807281494, z : 1.0538477897644043, vx : 0.0126179875805974, vy : -0.01716691441833973, vz : -0.000617389043327421}
2025-11-18 17:45:41 [DEBUG] MAVLINK [VIBRATION] VIBRATION {time_usec : 483543852, vibration_x : 0.007440078537911177, vibration_y : 0.0070530129596591, vibration_z : 0.008549279533326626, clipping_0 : 0, clipping_1 : 0, clipping_2 : 0}
2025-11-18 17:45:41 [DEBUG] MAVLINK [BATTERY_STATUS] BATTERY_STATUS {id : 0, battery_function : 0, type : 0, temperature : 32767, voltages : [10960, 65535, 65535, 65535, 65535, 65535, 65535, 65535, 65535, 65535], current_battery : 1, current_consumed : 217, energy_consumed : 78, battery_remaining : 95}
2025-11-18 17:45:41 [DEBUG] MAVLINK [UNKNOWN_11039] UNKNOWN_11039 {data:['fd', '8', '0', '0', '95', '1', '1', '1f', '2b', '0', 'af', '11', 'd6', 'c', 'd0', 'c', 'dc', 'c', '4', 'f5']}
2025-11-18 17:45:41 [DEBUG] MAVLINK [HEARTBEAT] HEARTBEAT {type : 6, autopilot : 8, base_mode : 192, custom_mode : 0, system_status : 4, mavlink_version : 3}
2025-11-18 17:45:41 [DEBUG] MAVLINK [AHRS] AHRS {omegaIx : 0.0001865738449851051, omegaIy : 0.00012009920465061441, omegaIz : -0.0015791922342032194, accel_weight : 0.0, renorm_val : 0.0, error_rp : 0.0011642435565590858, error_yaw : 0.0020609695930033922}
2025-11-18 17:45:41 [DEBUG] MAVLINK [AHRS2] AHRS2 {roll : -0.0465976744890213, pitch : -0.0002315353776793927, yaw : 1.9525688886642456, altitude : 578.7099609375, lat : 174481172, lng : 783809948}
2025-11-18 17:45:41 [DEBUG] MAVLINK [ATTITUDE] ATTITUDE {time_boot_ms : 483787, roll : -0.031114589422941208, pitch : -0.003308430314064026, yaw : 1.9492595195770264, rollspeed : 0.00011786325922003016, pitchspeed : -0.0001850273401942104, yawspeed : -0.0002726485254243016}
2025-11-18 17:45:41 [DEBUG] MAVLINK [GLOBAL_POSITION_INT] GLOBAL_POSITION_INT {time_boot_ms : 483787, lat : 174481163, lon : 783809938, alt : 579740, relative_alt : -122, vx : 1, vy : -1, vz : 0, hdg : 11168}
2025-11-18 17:45:41 [DEBUG] MAVLINK [VFR_HUD] VFR_HUD {airspeed : 0.021543897688388824, groundspeed : 0.021463768556714058, heading : 111, throttle : 0, alt : 579.739990234375, climb : 0.001856371178291738}
2025-11-18 17:45:41 [DEBUG] MAVLINK [SYS_STATUS] SYS_STATUS {onboard_control_sensors_present : 1399913519, onboard_control_sensors_enabled : 1113652271, onboard_control_sensors_health : 1198586927, load : 328, voltage_battery : 10962, current_battery : 2, battery_remaining : 95, drop_rate_comm : 0, errors_comm : 0, errors_count1 : 0, errors_count2 : 0, errors_count3 : 0, errors_count4 : 0}
2025-11-18 17:45:41 [DEBUG] MAVLINK [POWER_STATUS] POWER_STATUS {Vcc : 5286, Vservo : 5030, flags : 5}
2025-11-18 17:45:41 [DEBUG] MAVLINK [MEMINFO] MEMINFO {brkval : 0, freemem : 65535}
2025-11-18 17:45:41 [DEBUG] MAVLINK [NAV_CONTROLLER_OUTPUT] NAV_CONTROLLER_OUTPUT {nav_roll : -0.00024786125868558884, nav_pitch : -0.0003053531108889729, nav_bearing : 111, target_bearing : 0, wp_dist : 0, alt_error : 0.0, aspd_error : 0.0, xtrack_error : 0.0}
2025-11-18 17:45:41 [DEBUG] MAVLINK [MISSION_CURRENT] MISSION_CURRENT {seq : 0}
2025-11-18 17:45:41 [DEBUG] MAVLINK [SERVO_OUTPUT_RAW] SERVO_OUTPUT_RAW {time_usec : 483788140, port : 0, servo1_raw : 1000, servo2_raw : 1000, servo3_raw : 1000, servo4_raw : 1000, servo5_raw : 0, servo6_raw : 0, servo7_raw : 0, servo8_raw : 0}
2025-11-18 17:45:41 [DEBUG] MAVLINK [RC_CHANNELS] RC_CHANNELS {time_boot_ms : 483788, chancount : 0, chan1_raw : 0, chan2_raw : 0, chan3_raw : 0, chan4_raw : 0, chan5_raw : 0, chan6_raw : 0, chan7_raw : 0, chan8_raw : 0, chan9_raw : 0, chan10_raw : 0, chan11_raw : 0, chan12_raw : 0, chan13_raw : 0, chan14_raw : 0, chan15_raw : 0, chan16_raw : 0, chan17_raw : 0, chan18_raw : 0, rssi : 255}
2025-11-18 17:45:41 [DEBUG] MAVLINK [RAW_IMU] RAW_IMU {time_usec : 483790581, xacc : 13, yacc : 70, zacc : -999, xgyro : 0, ygyro : 0, zgyro : 1, xmag : -129, ymag : -320, zmag : 101}
2025-11-18 17:45:41 [DEBUG] MAVLINK [SCALED_IMU2] SCALED_IMU2 {time_boot_ms : 483790, xacc : 15, yacc : 67, zacc : -997, xgyro : 1, ygyro : 0, zgyro : 0, xmag : -158, ymag : -363, zmag : 147}
2025-11-18 17:45:41 [DEBUG] MAVLINK [SCALED_IMU3] SCALED_IMU3 {time_boot_ms : 483790, xacc : 21, yacc : 59, zacc : -1001, xgyro : -1, ygyro : 0, zgyro : 0, xmag : 0, ymag : 0, zmag : 0}
2025-11-18 17:45:41 [DEBUG] MAVLINK [SCALED_PRESSURE] SCALED_PRESSURE {time_boot_ms : 483790, press_abs : 949.1193237304688, press_diff : 0.0, temperature : 4658}
2025-11-18 17:45:41 [DEBUG] MAVLINK [SCALED_PRESSURE2] SCALED_PRESSURE2 {time_boot_ms : 483790, press_abs : 949.1791381835938, press_diff : 0.0, temperature : 4361}
2025-11-18 17:45:41 [DEBUG] MAVLINK [GPS_RAW_INT] GPS_RAW_INT {time_usec : 483712000, fix_type : 4, lat : 174481172, lon : 783809948, alt : 574850, eph : 69, epv : 112, vel : 4, cog : 9919, satellites_visible : 18}
2025-11-18 17:45:41 [INFO] Arming motors...
2025-11-18 17:45:41 [DEBUG] MAVLINK [SYSTEM_TIME] SYSTEM_TIME {time_unix_usec : 1763468141678579, time_boot_ms : 483790}
2025-11-18 17:45:41 [INFO] Waiting for motors to arm...
2025-11-18 17:45:41 [DEBUG] MAVLINK [WIND] WIND {direction : -180.0, speed : 0.0, speed_z : 0.0}
2025-11-18 17:45:41 [DEBUG] MAVLINK [TERRAIN_REPORT] TERRAIN_REPORT {lat : 174481163, lon : 783809938, spacing : 100, terrain_height : 579.8833618164062, current_height : -0.14337477087974548, pending : 0, loaded : 504}
2025-11-18 17:45:41 [DEBUG] MAVLINK [EKF_STATUS_REPORT] EKF_STATUS_REPORT {flags : 831, velocity_variance : 0.017331311479210854, pos_horiz_variance : 0.013938473537564278, pos_vert_variance : 0.010225404053926468, compass_variance : 0.0007426930242218077, terrain_alt_variance : 0.0}
2025-11-18 17:45:41 [DEBUG] MAVLINK [LOCAL_POSITION_NED] LOCAL_POSITION_NED {time_boot_ms : 483793, x : 0.4878222644329071, y : -0.7686646580696106, z : 1.0525046586990356, vx : 0.010631795972585678, vy : -0.01862558163702488, vz : -0.0019472094718366861}
2025-11-18 17:45:41 [DEBUG] MAVLINK [VIBRATION] VIBRATION {time_usec : 483793289, vibration_x : 0.007422137074172497, vibration_y : 0.007339640520513058, vibration_z : 0.009308235719799995, clipping_0 : 0, clipping_1 : 0, clipping_2 : 0}
2025-11-18 17:45:41 [DEBUG] MAVLINK [BATTERY_STATUS] BATTERY_STATUS {id : 0, battery_function : 0, type : 0, temperature : 32767, voltages : [10962, 65535, 65535, 65535, 65535, 65535, 65535, 65535, 65535, 65535], current_battery : 2, current_consumed : 217, energy_consumed : 78, battery_remaining : 95}
2025-11-18 17:45:41 [DEBUG] MAVLINK [UNKNOWN_11039] UNKNOWN_11039 {data:['fd', '8', '0', '0', 'af', '1', '1', '1f', '2b', '0', 'af', '11', 'd6', 'c', 'cd', 'c', 'dc', 'c', '2b', '13']}
2025-11-18 17:45:41 [DEBUG] MAVLINK [COMMAND_ACK] COMMAND_ACK {command : 400, result : 0}
2025-11-18 17:45:41 [DEBUG] MAVLINK [GPS_GLOBAL_ORIGIN] GPS_GLOBAL_ORIGIN {latitude : 174481120, longitude : 783810011, altitude : 580800}
2025-11-18 17:45:41 [DEBUG] MAVLINK [HOME_POSITION] HOME_POSITION {latitude : 174481163, longitude : 783809938, altitude : 579740, x : 0.4786710739135742, y : -0.7752377390861511, z : 1.059999942779541, q : [nan, nan, nan, nan], approach_x : 0.0, approach_y : 0.0, approach_z : 0.0}
2025-11-18 17:45:41 [DEBUG] MAVLINK [STATUSTEXT] STATUSTEXT {severity : 4, text : Warning: Arming Checks Disabled}
2025-11-18 17:45:42 [DEBUG] MAVLINK [AHRS] AHRS {omegaIx : 0.00018903688760474324, omegaIy : 0.00012302202230785042, omegaIz : -0.0015782377449795604, accel_weight : 0.0, renorm_val : 0.0, error_rp : 0.0022049322724342346, error_yaw : 0.0021473632659763098}
2025-11-18 17:45:42 [DEBUG] MAVLINK [AHRS2] AHRS2 {roll : -0.04663912206888199, pitch : -0.0001016475580399856, yaw : 1.9525989294052124, altitude : 579.0299682617188, lat : 174481172, lng : 783809946}
2025-11-18 17:45:42 [DEBUG] MAVLINK [ATTITUDE] ATTITUDE {time_boot_ms : 484037, roll : -0.03106408566236496, pitch : -0.003228995017707348, yaw : 1.9491279125213623, rollspeed : -7.718059350736439e-05, pitchspeed : 0.0004430770641192794, yawspeed : -0.0004516816698014736}
2025-11-18 17:45:42 [DEBUG] MAVLINK [GLOBAL_POSITION_INT] GLOBAL_POSITION_INT {time_boot_ms : 484037, lat : 174481164, lon : 783809938, alt : 579750, relative_alt : 9, vx : 0, vy : -2, vz : 0, hdg : 11167}
2025-11-18 17:45:42 [DEBUG] MAVLINK [VFR_HUD] VFR_HUD {airspeed : 0.02394494228065014, groundspeed : 0.023759489879012108, heading : 111, throttle : 0, alt : 579.75, climb : 0.0029743812046945095}
2025-11-18 17:45:42 [DEBUG] MAVLINK [SYS_STATUS] SYS_STATUS {onboard_control_sensors_present : 1399913519, onboard_control_sensors_enabled : 1130429487, onboard_control_sensors_health : 1198586927, load : 312, voltage_battery : 10959, current_battery : 2, battery_remaining : 95, drop_rate_comm : 0, errors_comm : 0, errors_count1 : 0, errors_count2 : 0, errors_count3 : 0, errors_count4 : 0}
2025-11-18 17:45:42 [DEBUG] MAVLINK [POWER_STATUS] POWER_STATUS {Vcc : 5278, Vservo : 5040, flags : 5}
2025-11-18 17:45:42 [DEBUG] MAVLINK [MEMINFO] MEMINFO {brkval : 0, freemem : 65535}
2025-11-18 17:45:42 [DEBUG] MAVLINK [NAV_CONTROLLER_OUTPUT] NAV_CONTROLLER_OUTPUT {nav_roll : -0.00024786105495877564, nav_pitch : -0.0003053531108889729, nav_bearing : 111, target_bearing : 0, wp_dist : 0, alt_error : 0.0, aspd_error : 0.0, xtrack_error : 0.0}
2025-11-18 17:45:42 [DEBUG] MAVLINK [MISSION_CURRENT] MISSION_CURRENT {seq : 0}
2025-11-18 17:45:42 [DEBUG] MAVLINK [SERVO_OUTPUT_RAW] SERVO_OUTPUT_RAW {time_usec : 484038111, port : 0, servo1_raw : 1000, servo2_raw : 1000, servo3_raw : 1000, servo4_raw : 1000, servo5_raw : 0, servo6_raw : 0, servo7_raw : 0, servo8_raw : 0}
2025-11-18 17:45:42 [DEBUG] MAVLINK [RC_CHANNELS] RC_CHANNELS {time_boot_ms : 484038, chancount : 0, chan1_raw : 0, chan2_raw : 0, chan3_raw : 0, chan4_raw : 0, chan5_raw : 0, chan6_raw : 0, chan7_raw : 0, chan8_raw : 0, chan9_raw : 0, chan10_raw : 0, chan11_raw : 0, chan12_raw : 0, chan13_raw : 0, chan14_raw : 0, chan15_raw : 0, chan16_raw : 0, chan17_raw : 0, chan18_raw : 0, rssi : 255}
2025-11-18 17:45:42 [DEBUG] MAVLINK [RAW_IMU] RAW_IMU {time_usec : 484041004, xacc : 13, yacc : 71, zacc : -999, xgyro : 0, ygyro : 0, zgyro : 1, xmag : -129, ymag : -320, zmag : 101}
2025-11-18 17:45:42 [DEBUG] MAVLINK [SCALED_IMU2] SCALED_IMU2 {time_boot_ms : 484041, xacc : 15, yacc : 69, zacc : -999, xgyro : 0, ygyro : -1, zgyro : -1, xmag : -146, ymag : -369, zmag : 149}
2025-11-18 17:45:42 [DEBUG] MAVLINK [SCALED_IMU3] SCALED_IMU3 {time_boot_ms : 484041, xacc : 19, yacc : 58, zacc : -999, xgyro : -1, ygyro : 1, zgyro : 0, xmag : 0, ymag : 0, zmag : 0}
2025-11-18 17:45:42 [DEBUG] MAVLINK [SCALED_PRESSURE] SCALED_PRESSURE {time_boot_ms : 484041, press_abs : 949.0687255859375, press_diff : 0.0, temperature : 4658}
2025-11-18 17:45:42 [DEBUG] MAVLINK [SCALED_PRESSURE2] SCALED_PRESSURE2 {time_boot_ms : 484041, press_abs : 949.1866455078125, press_diff : 0.0, temperature : 4360}
2025-11-18 17:45:42 [DEBUG] MAVLINK [GPS_RAW_INT] GPS_RAW_INT {time_usec : 483912000, fix_type : 4, lat : 174481172, lon : 783809947, alt : 574870, eph : 69, epv : 112, vel : 5, cog : 9919, satellites_visible : 18}
2025-11-18 17:45:42 [DEBUG] MAVLINK [SYSTEM_TIME] SYSTEM_TIME {time_unix_usec : 1763468141928939, time_boot_ms : 484041}
2025-11-18 17:45:42 [DEBUG] MAVLINK [WIND] WIND {direction : -180.0, speed : 0.0, speed_z : 0.0}
2025-11-18 17:45:42 [DEBUG] MAVLINK [TERRAIN_REPORT] TERRAIN_REPORT {lat : 174481164, lon : 783809938, spacing : 100, terrain_height : 579.7400512695312, current_height : 0.0099357720464468, pending : 0, loaded : 504}
2025-11-18 17:45:42 [DEBUG] MAVLINK [EKF_STATUS_REPORT] EKF_STATUS_REPORT {flags : 831, velocity_variance : 0.022953014820814133, pos_horiz_variance : 0.013045232743024826, pos_vert_variance : 0.016786180436611176, compass_variance : 7.207185990409926e-05, terrain_alt_variance : 0.0}
2025-11-18 17:45:42 [DEBUG] MAVLINK [LOCAL_POSITION_NED] LOCAL_POSITION_NED {time_boot_ms : 484043, x : 0.49223792552948, y : -0.770449697971344, z : 1.0497082471847534, vx : 0.009041965939104557, vy : -0.022109737619757652, vz : -0.003104724455624819}
2025-11-18 17:45:42 [DEBUG] MAVLINK [VIBRATION] VIBRATION {time_usec : 484043408, vibration_x : 0.008707767352461815, vibration_y : 0.0071098762564361095, vibration_z : 0.007663534954190254, clipping_0 : 0, clipping_1 : 0, clipping_2 : 0}
2025-11-18 17:45:42 [DEBUG] MAVLINK [BATTERY_STATUS] BATTERY_STATUS {id : 0, battery_function : 0, type : 0, temperature : 32767, voltages : [10959, 65535, 65535, 65535, 65535, 65535, 65535, 65535, 65535, 65535], current_battery : 2, current_consumed : 217, energy_consumed : 78, battery_remaining : 95}
2025-11-18 17:45:42 [DEBUG] MAVLINK [UNKNOWN_11039] UNKNOWN_11039 {data:['fd', '8', '0', '0', 'cd', '1', '1', '1f', '2b', '0', 'af', '11', 'd6', 'c', 'cd', 'c', 'dd', 'c', 'c8', 'f']}
2025-11-18 17:45:42 [DEBUG] MAVLINK [HEARTBEAT] HEARTBEAT {type : 2, autopilot : 3, base_mode : 217, custom_mode : 4, system_status : 5, mavlink_version : 3}
2025-11-18 17:45:42 [DEBUG] MAVLINK [HEARTBEAT] HEARTBEAT {type : 27, autopilot : 8, base_mode : 4, custom_mode : 0, system_status : 4, mavlink_version : 3}
2025-11-18 17:45:42 [DEBUG] MAVLINK [AHRS] AHRS {omegaIx : 0.00018472933152224869, omegaIy : 0.00011799694038927555, omegaIz : -0.001579049974679947, accel_weight : 0.0, renorm_val : 0.0, error_rp : 0.007392441853880882, error_yaw : 0.00200251629576087}
2025-11-18 17:45:42 [DEBUG] MAVLINK [AHRS2] AHRS2 {roll : -0.047086991369724274, pitch : -0.0005248362431302667, yaw : 1.9526662826538086, altitude : 578.7099609375, lat : 174481173, lng : 783809947}
2025-11-18 17:45:42 [DEBUG] MAVLINK [ATTITUDE] ATTITUDE {time_boot_ms : 484287, roll : -0.03110000118613243, pitch : -0.003233412280678749, yaw : 1.949015736579895, rollspeed : 2.6434339815750718e-05, pitchspeed : -0.0005395010812208056, yawspeed : -0.000540264300070703}
2025-11-18 17:45:42 [DEBUG] MAVLINK [GLOBAL_POSITION_INT] GLOBAL_POSITION_INT {time_boot_ms : 484287, lat : 174481164, lon : 783809938, alt : 579750, relative_alt : 15, vx : 0, vy : -2, vz : 0, hdg : 11167}
2025-11-18 17:45:42 [DEBUG] MAVLINK [VFR_HUD] VFR_HUD {airspeed : 0.02569979801774025, groundspeed : 0.025235570967197418, heading : 111, throttle : 0, alt : 579.75, climb : 0.004862664267420769}
2025-11-18 17:45:42 [DEBUG] MAVLINK [SYS_STATUS] SYS_STATUS {onboard_control_sensors_present : 1399913519, onboard_control_sensors_enabled : 1130429487, onboard_control_sensors_health : 1198586927, load : 313, voltage_battery : 10952, current_battery : 1, battery_remaining : 95, drop_rate_comm : 0, errors_comm : 0, errors_count1 : 0, errors_count2 : 0, errors_count3 : 0, errors_count4 : 0}
2025-11-18 17:45:42 [DEBUG] MAVLINK [POWER_STATUS] POWER_STATUS {Vcc : 5276, Vservo : 5040, flags : 5}
2025-11-18 17:45:42 [DEBUG] MAVLINK [MEMINFO] MEMINFO {brkval : 0, freemem : 65535}
2025-11-18 17:45:42 [DEBUG] MAVLINK [NAV_CONTROLLER_OUTPUT] NAV_CONTROLLER_OUTPUT {nav_roll : -0.00024786076392047107, nav_pitch : -0.00030535293626599014, nav_bearing : 111, target_bearing : 0, wp_dist : 0, alt_error : 0.0, aspd_error : 0.0, xtrack_error : 0.0}
2025-11-18 17:45:42 [DEBUG] MAVLINK [MISSION_CURRENT] MISSION_CURRENT {seq : 0}
2025-11-18 17:45:42 [DEBUG] MAVLINK [SERVO_OUTPUT_RAW] SERVO_OUTPUT_RAW {time_usec : 484288166, port : 0, servo1_raw : 1000, servo2_raw : 1000, servo3_raw : 1000, servo4_raw : 1000, servo5_raw : 0, servo6_raw : 0, servo7_raw : 0, servo8_raw : 0}
2025-11-18 17:45:42 [DEBUG] MAVLINK [RC_CHANNELS] RC_CHANNELS {time_boot_ms : 484288, chancount : 0, chan1_raw : 0, chan2_raw : 0, chan3_raw : 0, chan4_raw : 0, chan5_raw : 0, chan6_raw : 0, chan7_raw : 0, chan8_raw : 0, chan9_raw : 0, chan10_raw : 0, chan11_raw : 0, chan12_raw : 0, chan13_raw : 0, chan14_raw : 0, chan15_raw : 0, chan16_raw : 0, chan17_raw : 0, chan18_raw : 0, rssi : 255}
2025-11-18 17:45:42 [DEBUG] MAVLINK [RAW_IMU] RAW_IMU {time_usec : 484290627, xacc : 13, yacc : 70, zacc : -999, xgyro : 0, ygyro : 0, zgyro : 0, xmag : -130, ymag : -320, zmag : 101}
2025-11-18 17:45:42 [DEBUG] MAVLINK [SCALED_IMU2] SCALED_IMU2 {time_boot_ms : 484290, xacc : 16, yacc : 67, zacc : -998, xgyro : 1, ygyro : -1, zgyro : 0, xmag : -160, ymag : -377, zmag : 140}
2025-11-18 17:45:42 [DEBUG] MAVLINK [SCALED_IMU3] SCALED_IMU3 {time_boot_ms : 484290, xacc : 21, yacc : 60, zacc : -1000, xgyro : -2, ygyro : -2, zgyro : -2, xmag : 0, ymag : 0, zmag : 0}
2025-11-18 17:45:42 [DEBUG] MAVLINK [SCALED_PRESSURE] SCALED_PRESSURE {time_boot_ms : 484290, press_abs : 949.1043701171875, press_diff : 0.0, temperature : 4658}
2025-11-18 17:45:42 [DEBUG] MAVLINK [SCALED_PRESSURE2] SCALED_PRESSURE2 {time_boot_ms : 484290, press_abs : 949.165771484375, press_diff : 0.0, temperature : 4360}
2025-11-18 17:45:42 [DEBUG] MAVLINK [GPS_RAW_INT] GPS_RAW_INT {time_usec : 484112000, fix_type : 4, lat : 174481173, lon : 783809947, alt : 574910, eph : 69, epv : 112, vel : 3, cog : 9919, satellites_visible : 18}
2025-11-18 17:45:42 [DEBUG] MAVLINK [SYSTEM_TIME] SYSTEM_TIME {time_unix_usec : 1763468142178590, time_boot_ms : 484290}
2025-11-18 17:45:42 [DEBUG] MAVLINK [WIND] WIND {direction : -180.0, speed : 0.0, speed_z : 0.0}
2025-11-18 17:45:42 [DEBUG] MAVLINK [TERRAIN_REPORT] TERRAIN_REPORT {lat : 174481164, lon : 783809938, spacing : 100, terrain_height : 579.7400512695312, current_height : 0.0099357720464468, pending : 0, loaded : 504}
2025-11-18 17:45:42 [DEBUG] MAVLINK [EKF_STATUS_REPORT] EKF_STATUS_REPORT {flags : 831, velocity_variance : 0.02055910788476467, pos_horiz_variance : 0.01390798483043909, pos_vert_variance : 0.000899464706890285, compass_variance : 0.0007044867961667478, terrain_alt_variance : 0.0}
2025-11-18 17:45:42 [DEBUG] MAVLINK [LOCAL_POSITION_NED] LOCAL_POSITION_NED {time_boot_ms : 484290, x : 0.49888521432876587, y : -0.770052433013916, z : 1.0445098876953125, vx : 0.009059926494956017, vy : -0.023453928530216217, vz : -0.0048943860456347466}
2025-11-18 17:45:42 [DEBUG] MAVLINK [VIBRATION] VIBRATION {time_usec : 484293083, vibration_x : 0.008065777830779552, vibration_y : 0.007828960195183754, vibration_z : 0.009406784549355507, clipping_0 : 0, clipping_1 : 0, clipping_2 : 0}
2025-11-18 17:45:42 [DEBUG] MAVLINK [BATTERY_STATUS] BATTERY_STATUS {id : 0, battery_function : 0, type : 0, temperature : 32767, voltages : [10952, 65535, 65535, 65535, 65535, 65535, 65535, 65535, 65535, 65535], current_battery : 1, current_consumed : 217, energy_consumed : 78, battery_remaining : 95}
2025-11-18 17:45:42 [DEBUG] MAVLINK [UNKNOWN_11039] UNKNOWN_11039 {data:['fd', '8', '0', '0', 'e8', '1', '1', '1f', '2b', '0', 'b1', '11', 'd6', 'c', 'd0', 'c', 'dd', 'c', 'f7', 'ce']}
2025-11-18 17:45:42 [DEBUG] MAVLINK [AHRS] AHRS {omegaIx : 0.0001865682570496574, omegaIy : 0.00011778408224927261, omegaIz : -0.0015780879184603691, accel_weight : 0.0, renorm_val : 0.0, error_rp : 0.013512424193322659, error_yaw : 0.0017271846299991012}
2025-11-18 17:45:42 [DEBUG] MAVLINK [AHRS2] AHRS2 {roll : -0.046082112938165665, pitch : 0.00014222762547433376, yaw : 1.9527130126953125, altitude : 578.6699829101562, lat : 174481174, lng : 783809948}
2025-11-18 17:45:42 [DEBUG] MAVLINK [ATTITUDE] ATTITUDE {time_boot_ms : 484537, roll : -0.031105097383260727, pitch : -0.00325680710375309, yaw : 1.9488784074783325, rollspeed : -0.0002195399283664301, pitchspeed : 0.00011982009891653433, yawspeed : -0.0007343344623222947}
2025-11-18 17:45:42 [DEBUG] MAVLINK [GLOBAL_POSITION_INT] GLOBAL_POSITION_INT {time_boot_ms : 484537, lat : 174481165, lon : 783809938, alt : 579760, relative_alt : 20, vx : 0, vy : -2, vz : 0, hdg : 11166}
2025-11-18 17:45:42 [DEBUG] MAVLINK [VFR_HUD] VFR_HUD {airspeed : 0.026706282049417496, groundspeed : 0.02595507726073265, heading : 111, throttle : 0, alt : 579.760009765625, climb : 0.006289632059633732}
2025-11-18 17:45:42 [DEBUG] MAVLINK [SYS_STATUS] SYS_STATUS {onboard_control_sensors_present : 1399913519, onboard_control_sensors_enabled : 1130429487, onboard_control_sensors_health : 1198586927, load : 314, voltage_battery : 10952, current_battery : 1, battery_remaining : 95, drop_rate_comm : 0, errors_comm : 0, errors_count1 : 0, errors_count2 : 0, errors_count3 : 0, errors_count4 : 0}
2025-11-18 17:45:42 [DEBUG] MAVLINK [POWER_STATUS] POWER_STATUS {Vcc : 5270, Vservo : 5040, flags : 5}
2025-11-18 17:45:42 [DEBUG] MAVLINK [MEMINFO] MEMINFO {brkval : 0, freemem : 65535}
2025-11-18 17:45:42 [DEBUG] MAVLINK [NAV_CONTROLLER_OUTPUT] NAV_CONTROLLER_OUTPUT {nav_roll : -0.00024786090943962336, nav_pitch : -0.00030535293626599014, nav_bearing : 111, target_bearing : 0, wp_dist : 0, alt_error : 0.0, aspd_error : 0.0, xtrack_error : 0.0}
2025-11-18 17:45:42 [DEBUG] MAVLINK [MISSION_CURRENT] MISSION_CURRENT {seq : 0}
2025-11-18 17:45:42 [DEBUG] MAVLINK [SERVO_OUTPUT_RAW] SERVO_OUTPUT_RAW {time_usec : 484538054, port : 0, servo1_raw : 1000, servo2_raw : 1000, servo3_raw : 1000, servo4_raw : 1000, servo5_raw : 0, servo6_raw : 0, servo7_raw : 0, servo8_raw : 0}
2025-11-18 17:45:42 [DEBUG] MAVLINK [RC_CHANNELS] RC_CHANNELS {time_boot_ms : 484538, chancount : 0, chan1_raw : 0, chan2_raw : 0, chan3_raw : 0, chan4_raw : 0, chan5_raw : 0, chan6_raw : 0, chan7_raw : 0, chan8_raw : 0, chan9_raw : 0, chan10_raw : 0, chan11_raw : 0, chan12_raw : 0, chan13_raw : 0, chan14_raw : 0, chan15_raw : 0, chan16_raw : 0, chan17_raw : 0, chan18_raw : 0, rssi : 255}
2025-11-18 17:45:42 [DEBUG] MAVLINK [RAW_IMU] RAW_IMU {time_usec : 484538085, xacc : 13, yacc : 70, zacc : -998, xgyro : 0, ygyro : 0, zgyro : 0, xmag : -129, ymag : -319, zmag : 101}
2025-11-18 17:45:42 [DEBUG] MAVLINK [SCALED_IMU2] SCALED_IMU2 {time_boot_ms : 484538, xacc : 15, yacc : 69, zacc : -995, xgyro : 1, ygyro : 0, zgyro : -2, xmag : -154, ymag : -362, zmag : 148}
2025-11-18 17:45:42 [DEBUG] MAVLINK [SCALED_IMU3] SCALED_IMU3 {time_boot_ms : 484538, xacc : 19, yacc : 60, zacc : -1000, xgyro : -1, ygyro : -1, zgyro : 0, xmag : 0, ymag : 0, zmag : 0}
2025-11-18 17:45:42 [DEBUG] MAVLINK [SCALED_PRESSURE] SCALED_PRESSURE {time_boot_ms : 484538, press_abs : 949.109130859375, press_diff : 0.0, temperature : 4659}
2025-11-18 17:45:42 [DEBUG] MAVLINK [SCALED_PRESSURE2] SCALED_PRESSURE2 {time_boot_ms : 484538, press_abs : 949.177001953125, press_diff : 0.0, temperature : 4360}
2025-11-18 17:45:42 [DEBUG] MAVLINK [GPS_RAW_INT] GPS_RAW_INT {time_usec : 484512000, fix_type : 4, lat : 174481175, lon : 783809948, alt : 574970, eph : 69, epv : 112, vel : 5, cog : 9919, satellites_visible : 18}
2025-11-18 17:45:42 [DEBUG] MAVLINK [SYSTEM_TIME] SYSTEM_TIME {time_unix_usec : 1763468142429036, time_boot_ms : 484541}
2025-11-18 17:45:42 [DEBUG] MAVLINK [WIND] WIND {direction : -180.0, speed : 0.0, speed_z : 0.0}
2025-11-18 17:45:42 [DEBUG] MAVLINK [TERRAIN_REPORT] TERRAIN_REPORT {lat : 174481165, lon : 783809938, spacing : 100, terrain_height : 579.7401123046875, current_height : 0.019874736666679382, pending : 0, loaded : 504}
2025-11-18 17:45:42 [DEBUG] MAVLINK [EKF_STATUS_REPORT] EKF_STATUS_REPORT {flags : 831, velocity_variance : 0.015551659278571606, pos_horiz_variance : 0.014233222231268883, pos_vert_variance : 0.0014272419502958655, compass_variance : 3.586182356229983e-05, terrain_alt_variance : 0.0}
2025-11-18 17:45:42 [DEBUG] MAVLINK [LOCAL_POSITION_NED] LOCAL_POSITION_NED {time_boot_ms : 484541, x : 0.5059239268302917, y : -0.7683221697807312, z : 1.0389814376831055, vx : 0.00929275806993246, vy : -0.024219604209065437, vz : -0.0063179368153214455}
2025-11-18 17:45:42 [DEBUG] MAVLINK [VIBRATION] VIBRATION {time_usec : 484541309, vibration_x : 0.007642177864909172, vibration_y : 0.008108771406114101, vibration_z : 0.00904515478760004, clipping_0 : 0, clipping_1 : 0, clipping_2 : 0}
2025-11-18 17:45:42 [DEBUG] MAVLINK [BATTERY_STATUS] BATTERY_STATUS {id : 0, battery_function : 0, type : 0, temperature : 32767, voltages : [10952, 65535, 65535, 65535, 65535, 65535, 65535, 65535, 65535, 65535], current_battery : 1, current_consumed : 217, energy_consumed : 78, battery_remaining : 95}
2025-11-18 17:45:42 [DEBUG] MAVLINK [UNKNOWN_11039] UNKNOWN_11039 {data:['fd', '8', '0', '0', '2', '1', '1', '1f', '2b', '0', 'ad', '11', 'd6', 'c', 'ce', 'c', 'de', 'c', 'e8', '63']}
2025-11-18 17:45:42 [DEBUG] MAVLINK [HEARTBEAT] HEARTBEAT {type : 6, autopilot : 8, base_mode : 192, custom_mode : 0, system_status : 4, mavlink_version : 3}
2025-11-18 17:45:42 [DEBUG] MAVLINK [AHRS] AHRS {omegaIx : 0.0001801176549633965, omegaIy : 0.00010158521763514727, omegaIz : -0.0015794556820765138, accel_weight : 0.0, renorm_val : 0.0, error_rp : 0.024413175880908966, error_yaw : 0.0015685447724536061}
2025-11-18 17:45:42 [DEBUG] MAVLINK [AHRS2] AHRS2 {roll : -0.0468570776283741, pitch : -0.00030205200891941786, yaw : 1.9528015851974487, altitude : 578.719970703125, lat : 174481175, lng : 783809950}
2025-11-18 17:45:42 [DEBUG] MAVLINK [ATTITUDE] ATTITUDE {time_boot_ms : 484787, roll : -0.031204577535390854, pitch : -0.003300042822957039, yaw : 1.9487907886505127, rollspeed : -0.00012798972602467984, pitchspeed : -7.153944170568138e-05, yawspeed : 6.583950016647577e-05}
2025-11-18 17:45:42 [DEBUG] MAVLINK [GLOBAL_POSITION_INT] GLOBAL_POSITION_INT {time_boot_ms : 484787, lat : 174481166, lon : 783809939, alt : 579760, relative_alt : 27, vx : 1, vy : -2, vz : 0, hdg : 11165}
2025-11-18 17:45:42 [DEBUG] MAVLINK [VFR_HUD] VFR_HUD {airspeed : 0.025906719267368317, groundspeed : 0.024683227762579918, heading : 111, throttle : 0, alt : 579.760009765625, climb : 0.007867421954870224}
2025-11-18 17:45:42 [DEBUG] MAVLINK [SYS_STATUS] SYS_STATUS {onboard_control_sensors_present : 1399913519, onboard_control_sensors_enabled : 1130429487, onboard_control_sensors_health : 1198586927, load : 328, voltage_battery : 10952, current_battery : 2, battery_remaining : 95, drop_rate_comm : 0, errors_comm : 0, errors_count1 : 0, errors_count2 : 0, errors_count3 : 0, errors_count4 : 0}
2025-11-18 17:45:42 [DEBUG] MAVLINK [POWER_STATUS] POWER_STATUS {Vcc : 5279, Vservo : 5023, flags : 5}
2025-11-18 17:45:42 [DEBUG] MAVLINK [MEMINFO] MEMINFO {brkval : 0, freemem : 65535}
2025-11-18 17:45:42 [DEBUG] MAVLINK [NAV_CONTROLLER_OUTPUT] NAV_CONTROLLER_OUTPUT {nav_roll : -0.00024786079302430153, nav_pitch : -0.00030535305268131196, nav_bearing : 111, target_bearing : 0, wp_dist : 0, alt_error : 0.0, aspd_error : 0.0, xtrack_error : 0.0}
2025-11-18 17:45:42 [DEBUG] MAVLINK [MISSION_CURRENT] MISSION_CURRENT {seq : 0}
2025-11-18 17:45:42 [DEBUG] MAVLINK [SERVO_OUTPUT_RAW] SERVO_OUTPUT_RAW {time_usec : 484788017, port : 0, servo1_raw : 1000, servo2_raw : 1000, servo3_raw : 1000, servo4_raw : 1000, servo5_raw : 0, servo6_raw : 0, servo7_raw : 0, servo8_raw : 0}
2025-11-18 17:45:42 [DEBUG] MAVLINK [RC_CHANNELS] RC_CHANNELS {time_boot_ms : 484788, chancount : 0, chan1_raw : 0, chan2_raw : 0, chan3_raw : 0, chan4_raw : 0, chan5_raw : 0, chan6_raw : 0, chan7_raw : 0, chan8_raw : 0, chan9_raw : 0, chan10_raw : 0, chan11_raw : 0, chan12_raw : 0, chan13_raw : 0, chan14_raw : 0, chan15_raw : 0, chan16_raw : 0, chan17_raw : 0, chan18_raw : 0, rssi : 255}
2025-11-18 17:45:42 [DEBUG] MAVLINK [RAW_IMU] RAW_IMU {time_usec : 484788048, xacc : 13, yacc : 70, zacc : -998, xgyro : 0, ygyro : 0, zgyro : 1, xmag : -129, ymag : -319, zmag : 101}
2025-11-18 17:45:42 [DEBUG] MAVLINK [SCALED_IMU2] SCALED_IMU2 {time_boot_ms : 484788, xacc : 13, yacc : 68, zacc : -997, xgyro : 2, ygyro : 0, zgyro : -1, xmag : -147, ymag : -355, zmag : 167}
2025-11-18 17:45:42 [DEBUG] MAVLINK [SCALED_IMU3] SCALED_IMU3 {time_boot_ms : 484788, xacc : 21, yacc : 59, zacc : -1000, xgyro : 0, ygyro : 1, zgyro : 0, xmag : 0, ymag : 0, zmag : 0}
2025-11-18 17:45:42 [DEBUG] MAVLINK [SCALED_PRESSURE] SCALED_PRESSURE {time_boot_ms : 484788, press_abs : 949.10302734375, press_diff : 0.0, temperature : 4658}
2025-11-18 17:45:42 [DEBUG] MAVLINK [SCALED_PRESSURE2] SCALED_PRESSURE2 {time_boot_ms : 484788, press_abs : 949.1781005859375, press_diff : 0.0, temperature : 4360}
2025-11-18 17:45:42 [DEBUG] MAVLINK [GPS_RAW_INT] GPS_RAW_INT {time_usec : 484712000, fix_type : 4, lat : 174481175, lon : 783809949, alt : 574950, eph : 69, epv : 112, vel : 8, cog : 9919, satellites_visible : 18}
2025-11-18 17:45:42 [DEBUG] MAVLINK [SYSTEM_TIME] SYSTEM_TIME {time_unix_usec : 1763468142678567, time_boot_ms : 484790}
2025-11-18 17:45:42 [DEBUG] MAVLINK [WIND] WIND {direction : -180.0, speed : 0.0, speed_z : 0.0}
2025-11-18 17:45:42 [DEBUG] MAVLINK [TERRAIN_REPORT] TERRAIN_REPORT {lat : 174481166, lon : 783809939, spacing : 100, terrain_height : 579.7402954101562, current_height : 0.019691631197929382, pending : 0, loaded : 504}
2025-11-18 17:45:42 [DEBUG] MAVLINK [EKF_STATUS_REPORT] EKF_STATUS_REPORT {flags : 831, velocity_variance : 0.041117746382951736, pos_horiz_variance : 0.014031513594090939, pos_vert_variance : 0.000912616727873683, compass_variance : 0.0007075124885886908, terrain_alt_variance : 0.0}
2025-11-18 17:45:42 [DEBUG] MAVLINK [LOCAL_POSITION_NED] LOCAL_POSITION_NED {time_boot_ms : 484790, x : 0.5182673931121826, y : -0.759681761264801, z : 1.0317398309707642, vx : 0.011935767717659473, vy : -0.021001871675252914, vz : -0.007965887896716595}
2025-11-18 17:45:42 [DEBUG] MAVLINK [VIBRATION] VIBRATION {time_usec : 484790840, vibration_x : 0.0074587296694517136, vibration_y : 0.007699797861278057, vibration_z : 0.008934029377996922, clipping_0 : 0, clipping_1 : 0, clipping_2 : 0}
2025-11-18 17:45:42 [DEBUG] MAVLINK [BATTERY_STATUS] BATTERY_STATUS {id : 0, battery_function : 0, type : 0, temperature : 32767, voltages : [10952, 65535, 65535, 65535, 65535, 65535, 65535, 65535, 65535, 65535], current_battery : 2, current_consumed : 217, energy_consumed : 78, battery_remaining : 95}
2025-11-18 17:45:42 [DEBUG] MAVLINK [UNKNOWN_11039] UNKNOWN_11039 {data:['fd', '8', '0', '0', '1c', '1', '1', '1f', '2b', '0', 'b3', '11', 'd6', 'c', 'ce', 'c', 'dd', 'c', 'b6', 'e3']}
2025-11-18 17:45:42 [INFO] Waiting for motors to arm...
2025-11-18 17:45:43 [DEBUG] MAVLINK [AHRS] AHRS {omegaIx : 0.0001713883102638647, omegaIy : 0.00010259358532493934, omegaIz : -0.001578551484271884, accel_weight : 0.0, renorm_val : 0.0, error_rp : 0.033141374588012695, error_yaw : 0.0018917687702924013}
2025-11-18 17:45:43 [DEBUG] MAVLINK [AHRS2] AHRS2 {roll : -0.046592265367507935, pitch : -0.000661982863675803, yaw : 1.9528769254684448, altitude : 578.5399780273438, lat : 174481176, lng : 783809950}
2025-11-18 17:45:43 [DEBUG] MAVLINK [ATTITUDE] ATTITUDE {time_boot_ms : 485037, roll : -0.03127690404653549, pitch : -0.0035457927733659744, yaw : 1.9487046003341675, rollspeed : -0.00020499083620961756, pitchspeed : -0.00024856216623447835, yawspeed : 0.00018109846860170364}
2025-11-18 17:45:43 [DEBUG] MAVLINK [GLOBAL_POSITION_INT] GLOBAL_POSITION_INT {time_boot_ms : 485037, lat : 174481167, lon : 783809940, alt : 579770, relative_alt : 37, vx : 1, vy : -1, vz : -1, hdg : 11165}
2025-11-18 17:45:43 [DEBUG] MAVLINK [VFR_HUD] VFR_HUD {airspeed : 0.02250676415860653, groundspeed : 0.019958239048719406, heading : 111, throttle : 0, alt : 579.7699584960938, climb : 0.010403032414615154}
2025-11-18 17:45:43 [DEBUG] MAVLINK [SYS_STATUS] SYS_STATUS {onboard_control_sensors_present : 1399913519, onboard_control_sensors_enabled : 1130429487, onboard_control_sensors_health : 1198586927, load : 315, voltage_battery : 10968, current_battery : 2, battery_remaining : 95, drop_rate_comm : 0, errors_comm : 0, errors_count1 : 0, errors_count2 : 0, errors_count3 : 0, errors_count4 : 0}
2025-11-18 17:45:43 [DEBUG] MAVLINK [POWER_STATUS] POWER_STATUS {Vcc : 5285, Vservo : 5026, flags : 5}
2025-11-18 17:45:43 [DEBUG] MAVLINK [MEMINFO] MEMINFO {brkval : 0, freemem : 65535}
2025-11-18 17:45:43 [DEBUG] MAVLINK [NAV_CONTROLLER_OUTPUT] NAV_CONTROLLER_OUTPUT {nav_roll : -0.00024786090943962336, nav_pitch : -0.00030535299447365105, nav_bearing : 111, target_bearing : 0, wp_dist : 0, alt_error : 0.0, aspd_error : 0.0, xtrack_error : 0.0}
2025-11-18 17:45:43 [DEBUG] MAVLINK [MISSION_CURRENT] MISSION_CURRENT {seq : 0}
2025-11-18 17:45:43 [DEBUG] MAVLINK [SERVO_OUTPUT_RAW] SERVO_OUTPUT_RAW {time_usec : 485038105, port : 0, servo1_raw : 1000, servo2_raw : 1000, servo3_raw : 1000, servo4_raw : 1000, servo5_raw : 0, servo6_raw : 0, servo7_raw : 0, servo8_raw : 0}
2025-11-18 17:45:43 [DEBUG] MAVLINK [RC_CHANNELS] RC_CHANNELS {time_boot_ms : 485038, chancount : 0, chan1_raw : 0, chan2_raw : 0, chan3_raw : 0, chan4_raw : 0, chan5_raw : 0, chan6_raw : 0, chan7_raw : 0, chan8_raw : 0, chan9_raw : 0, chan10_raw : 0, chan11_raw : 0, chan12_raw : 0, chan13_raw : 0, chan14_raw : 0, chan15_raw : 0, chan16_raw : 0, chan17_raw : 0, chan18_raw : 0, rssi : 255}
2025-11-18 17:45:43 [DEBUG] MAVLINK [RAW_IMU] RAW_IMU {time_usec : 485038135, xacc : 13, yacc : 70, zacc : -999, xgyro : 0, ygyro : 0, zgyro : 1, xmag : -129, ymag : -319, zmag : 102}
2025-11-18 17:45:43 [DEBUG] MAVLINK [SCALED_IMU2] SCALED_IMU2 {time_boot_ms : 485038, xacc : 16, yacc : 69, zacc : -998, xgyro : 1, ygyro : 0, zgyro : -1, xmag : -162, ymag : -371, zmag : 150}
2025-11-18 17:45:43 [DEBUG] MAVLINK [SCALED_IMU3] SCALED_IMU3 {time_boot_ms : 485040, xacc : 22, yacc : 60, zacc : -998, xgyro : 0, ygyro : -1, zgyro : -2, xmag : 0, ymag : 0, zmag : 0}
2025-11-18 17:45:43 [DEBUG] MAVLINK [SCALED_PRESSURE] SCALED_PRESSURE {time_boot_ms : 485040, press_abs : 949.1234130859375, press_diff : 0.0, temperature : 4659}
2025-11-18 17:45:43 [DEBUG] MAVLINK [SCALED_PRESSURE2] SCALED_PRESSURE2 {time_boot_ms : 485040, press_abs : 949.157958984375, press_diff : 0.0, temperature : 4360}
2025-11-18 17:45:43 [DEBUG] MAVLINK [GPS_RAW_INT] GPS_RAW_INT {time_usec : 484912000, fix_type : 4, lat : 174481175, lon : 783809950, alt : 574970, eph : 77, epv : 139, vel : 8, cog : 9919, satellites_visible : 17}
2025-11-18 17:45:43 [DEBUG] MAVLINK [SYSTEM_TIME] SYSTEM_TIME {time_unix_usec : 1763468142928848, time_boot_ms : 485041}
2025-11-18 17:45:43 [DEBUG] MAVLINK [WIND] WIND {direction : -180.0, speed : 0.0, speed_z : 0.0}
2025-11-18 17:45:43 [DEBUG] MAVLINK [TERRAIN_REPORT] TERRAIN_REPORT {lat : 174481167, lon : 783809940, spacing : 100, terrain_height : 579.7405395507812, current_height : 0.029447490349411964, pending : 0, loaded : 504}
2025-11-18 17:45:43 [DEBUG] MAVLINK [EKF_STATUS_REPORT] EKF_STATUS_REPORT {flags : 831, velocity_variance : 0.04304111376404762, pos_horiz_variance : 0.013517471961677074, pos_vert_variance : 0.008779977448284626, compass_variance : 0.00015751634782645851, terrain_alt_variance : 0.0}
2025-11-18 17:45:43 [DEBUG] MAVLINK [LOCAL_POSITION_NED] LOCAL_POSITION_NED {time_boot_ms : 485041, x : 0.5288185477256775, y : -0.7450743317604065, z : 1.0222764015197754, vx : 0.013675039634108543, vy : -0.014494659379124641, vz : -0.01054354663938284}
2025-11-18 17:45:43 [DEBUG] MAVLINK [VIBRATION] VIBRATION {time_usec : 485043332, vibration_x : 0.008201668038964272, vibration_y : 0.007969322614371777, vibration_z : 0.008412021212279797, clipping_0 : 0, clipping_1 : 0, clipping_2 : 0}
2025-11-18 17:45:43 [DEBUG] MAVLINK [BATTERY_STATUS] BATTERY_STATUS {id : 0, battery_function : 0, type : 0, temperature : 32767, voltages : [10968, 65535, 65535, 65535, 65535, 65535, 65535, 65535, 65535, 65535], current_battery : 2, current_consumed : 217, energy_consumed : 78, battery_remaining : 95}
2025-11-18 17:45:43 [DEBUG] MAVLINK [UNKNOWN_11039] UNKNOWN_11039 {data:['fd', '8', '0', '0', '36', '1', '1', '1f', '2b', '0', 'af', '11', 'd6', 'c', 'cc', 'c', 'df', 'c', 'c2', '73']}
2025-11-18 17:45:43 [DEBUG] MAVLINK [HEARTBEAT] HEARTBEAT {type : 2, autopilot : 3, base_mode : 217, custom_mode : 4, system_status : 5, mavlink_version : 3}
2025-11-18 17:45:43 [DEBUG] MAVLINK [HEARTBEAT] HEARTBEAT {type : 27, autopilot : 8, base_mode : 4, custom_mode : 0, system_status : 4, mavlink_version : 3}
2025-11-18 17:45:43 [DEBUG] MAVLINK [AHRS] AHRS {omegaIx : 0.0001667994656600058, omegaIy : 0.00010022139031207189, omegaIz : -0.001580119482241571, accel_weight : 0.0, renorm_val : 0.0, error_rp : 0.030960548669099808, error_yaw : 0.0015816612867638469}
2025-11-18 17:45:43 [DEBUG] MAVLINK [AHRS2] AHRS2 {roll : -0.0469917394220829, pitch : 4.160487878834829e-05, yaw : 1.9529324769973755, altitude : 578.5299682617188, lat : 174481177, lng : 783809951}
2025-11-18 17:45:43 [DEBUG] MAVLINK [ATTITUDE] ATTITUDE {time_boot_ms : 485287, roll : -0.03143899142742157, pitch : -0.0035646772012114525, yaw : 1.94857656955719, rollspeed : -0.00021134730195626616, pitchspeed : 0.0002482278214301914, yawspeed : -0.0005386351840570569}
2025-11-18 17:45:43 [DEBUG] MAVLINK [GLOBAL_POSITION_INT] GLOBAL_POSITION_INT {time_boot_ms : 485287, lat : 174481168, lon : 783809941, alt : 579780, relative_alt : 46, vx : 1, vy : -1, vz : -1, hdg : 11164}
2025-11-18 17:45:43 [DEBUG] MAVLINK [VFR_HUD] VFR_HUD {airspeed : 0.024854492396116257, groundspeed : 0.02109474129974842, heading : 111, throttle : 0, alt : 579.7799682617188, climb : 0.01314372755587101}
2025-11-18 17:45:43 [DEBUG] MAVLINK [SYS_STATUS] SYS_STATUS {onboard_control_sensors_present : 1399913519, onboard_control_sensors_enabled : 1130429487, onboard_control_sensors_health : 1198586927, load : 312, voltage_battery : 10955, current_battery : 2, battery_remaining : 95, drop_rate_comm : 0, errors_comm : 0, errors_count1 : 0, errors_count2 : 0, errors_count3 : 0, errors_count4 : 0}
2025-11-18 17:45:43 [DEBUG] MAVLINK [POWER_STATUS] POWER_STATUS {Vcc : 5276, Vservo : 5040, flags : 5}
2025-11-18 17:45:43 [DEBUG] MAVLINK [MEMINFO] MEMINFO {brkval : 0, freemem : 65535}
2025-11-18 17:45:43 [DEBUG] MAVLINK [NAV_CONTROLLER_OUTPUT] NAV_CONTROLLER_OUTPUT {nav_roll : -0.00024786076392047107, nav_pitch : -0.0003053528780583292, nav_bearing : 111, target_bearing : 0, wp_dist : 0, alt_error : 0.0, aspd_error : 0.0, xtrack_error : 0.0}
2025-11-18 17:45:43 [DEBUG] MAVLINK [MISSION_CURRENT] MISSION_CURRENT {seq : 0}
2025-11-18 17:45:43 [DEBUG] MAVLINK [SERVO_OUTPUT_RAW] SERVO_OUTPUT_RAW {time_usec : 485288119, port : 0, servo1_raw : 1000, servo2_raw : 1000, servo3_raw : 1000, servo4_raw : 1000, servo5_raw : 0, servo6_raw : 0, servo7_raw : 0, servo8_raw : 0}
2025-11-18 17:45:43 [DEBUG] MAVLINK [RC_CHANNELS] RC_CHANNELS {time_boot_ms : 485290, chancount : 0, chan1_raw : 0, chan2_raw : 0, chan3_raw : 0, chan4_raw : 0, chan5_raw : 0, chan6_raw : 0, chan7_raw : 0, chan8_raw : 0, chan9_raw : 0, chan10_raw : 0, chan11_raw : 0, chan12_raw : 0, chan13_raw : 0, chan14_raw : 0, chan15_raw : 0, chan16_raw : 0, chan17_raw : 0, chan18_raw : 0, rssi : 255}
2025-11-18 17:45:43 [DEBUG] MAVLINK [RAW_IMU] RAW_IMU {time_usec : 485290601, xacc : 13, yacc : 70, zacc : -998, xgyro : 0, ygyro : 0, zgyro : 0, xmag : -129, ymag : -320, zmag : 101}
2025-11-18 17:45:43 [DEBUG] MAVLINK [SCALED_IMU2] SCALED_IMU2 {time_boot_ms : 485290, xacc : 15, yacc : 69, zacc : -998, xgyro : 0, ygyro : 0, zgyro : 0, xmag : -152, ymag : -363, zmag : 165}
2025-11-18 17:45:43 [DEBUG] MAVLINK [SCALED_IMU3] SCALED_IMU3 {time_boot_ms : 485290, xacc : 21, yacc : 59, zacc : -999, xgyro : -3, ygyro : 0, zgyro : 0, xmag : 0, ymag : 0, zmag : 0}
2025-11-18 17:45:43 [DEBUG] MAVLINK [SCALED_PRESSURE] SCALED_PRESSURE {time_boot_ms : 485290, press_abs : 949.1248168945312, press_diff : 0.0, temperature : 4659}
2025-11-18 17:45:43 [DEBUG] MAVLINK [SCALED_PRESSURE2] SCALED_PRESSURE2 {time_boot_ms : 485290, press_abs : 949.1626586914062, press_diff : 0.0, temperature : 4360}
2025-11-18 17:45:43 [DEBUG] MAVLINK [GPS_RAW_INT] GPS_RAW_INT {time_usec : 485112000, fix_type : 4, lat : 174481176, lon : 783809951, alt : 574960, eph : 69, epv : 112, vel : 5, cog : 9919, satellites_visible : 18}
2025-11-18 17:45:43 [DEBUG] MAVLINK [SYSTEM_TIME] SYSTEM_TIME {time_unix_usec : 1763468143178617, time_boot_ms : 485290}
2025-11-18 17:45:43 [DEBUG] MAVLINK [WIND] WIND {direction : -180.0, speed : 0.0, speed_z : 0.0}
2025-11-18 17:45:43 [DEBUG] MAVLINK [TERRAIN_REPORT] TERRAIN_REPORT {lat : 174481168, lon : 783809941, spacing : 100, terrain_height : 579.7408447265625, current_height : 0.039142314344644547, pending : 0, loaded : 504}
2025-11-18 17:45:43 [DEBUG] MAVLINK [EKF_STATUS_REPORT] EKF_STATUS_REPORT {flags : 831, velocity_variance : 0.01893983781337738, pos_horiz_variance : 0.013437042012810707, pos_vert_variance : 0.009535090066492558, compass_variance : 0.0007520102662965655, terrain_alt_variance : 0.0}
2025-11-18 17:45:43 [DEBUG] MAVLINK [LOCAL_POSITION_NED] LOCAL_POSITION_NED {time_boot_ms : 485293, x : 0.5449749231338501, y : -0.7329577803611755, z : 1.012960433959961, vx : 0.018681881949305534, vy : -0.00992646161466837, vz : -0.01315834280103445}
2025-11-18 17:45:43 [DEBUG] MAVLINK [VIBRATION] VIBRATION {time_usec : 485293265, vibration_x : 0.00665277661755681, vibration_y : 0.0075694965198636055, vibration_z : 0.009035998955368996, clipping_0 : 0, clipping_1 : 0, clipping_2 : 0}
2025-11-18 17:45:43 [DEBUG] MAVLINK [BATTERY_STATUS] BATTERY_STATUS {id : 0, battery_function : 0, type : 0, temperature : 32767, voltages : [10955, 65535, 65535, 65535, 65535, 65535, 65535, 65535, 65535, 65535], current_battery : 2, current_consumed : 217, energy_consumed : 78, battery_remaining : 95}
2025-11-18 17:45:43 [DEBUG] MAVLINK [UNKNOWN_11039] UNKNOWN_11039 {data:['fd', '8', '0', '0', '51', '1', '1', '1f', '2b', '0', 'ad', '11', 'd6', 'c', 'cc', 'c', 'e0', 'c', 'fd', '2']}
2025-11-18 17:45:43 [DEBUG] MAVLINK [AHRS] AHRS {omegaIx : 0.0001629615289857611, omegaIy : 9.74201102508232e-05, omegaIz : -0.001578830648213625, accel_weight : 0.0, renorm_val : 0.0, error_rp : 0.025461960583925247, error_yaw : 0.0018725672271102667}
2025-11-18 17:45:43 [DEBUG] MAVLINK [AHRS2] AHRS2 {roll : -0.046754855662584305, pitch : -0.00019613276526797563, yaw : 1.9530726671218872, altitude : 578.7899780273438, lat : 174481177, lng : 783809951}
2025-11-18 17:45:43 [DEBUG] MAVLINK [ATTITUDE] ATTITUDE {time_boot_ms : 485537, roll : -0.03154800832271576, pitch : -0.0036195842549204826, yaw : 1.9485071897506714, rollspeed : -0.0002456152578815818, pitchspeed : 0.00021776213543489575, yawspeed : -0.0008384512620978057}
2025-11-18 17:45:43 [DEBUG] MAVLINK [GLOBAL_POSITION_INT] GLOBAL_POSITION_INT {time_boot_ms : 485537, lat : 174481170, lon : 783809943, alt : 579790, relative_alt : 55, vx : 2, vy : 0, vz : -1, hdg : 11164}
2025-11-18 17:45:43 [DEBUG] MAVLINK [VFR_HUD] VFR_HUD {airspeed : 0.02853572368621826, groundspeed : 0.023812100291252136, heading : 111, throttle : 0, alt : 579.7899780273438, climb : 0.01572486385703087}
2025-11-18 17:45:43 [DEBUG] MAVLINK [SYS_STATUS] SYS_STATUS {onboard_control_sensors_present : 1399913519, onboard_control_sensors_enabled : 1130429487, onboard_control_sensors_health : 1198586927, load : 312, voltage_battery : 10957, current_battery : 1, battery_remaining : 95, drop_rate_comm : 0, errors_comm : 0, errors_count1 : 0, errors_count2 : 0, errors_count3 : 0, errors_count4 : 0}
2025-11-18 17:45:43 [DEBUG] MAVLINK [POWER_STATUS] POWER_STATUS {Vcc : 5291, Vservo : 5030, flags : 5}
2025-11-18 17:45:43 [DEBUG] MAVLINK [MEMINFO] MEMINFO {brkval : 0, freemem : 65535}
