2025-11-18 17:34:42 [INFO] Logger initialized.
2025-11-18 17:34:42 [INFO] Log file: logs/drone_log_2025-11-18_17-34-42.log
2025-11-18 17:34:54 [INFO] Connected to FC on /dev/ttyACM0@115200
2025-11-18 17:34:54 [INFO] Checking pre-arm conditions...
2025-11-18 17:34:54 [INFO] Saved HOME: lat=17.4481489, lon=78.381063, alt=-0.176
2025-11-18 17:34:54 [INFO] Waiting for GUIDED...
2025-11-18 17:34:54 [DEBUG] MAVLINK [COMMAND_ACK] COMMAND_ACK {command : 176, result : 0, progress : 0, result_param2 : 0, target_system : 255, target_component : 0}
2025-11-18 17:34:54 [DEBUG] MAVLINK [HEARTBEAT] HEARTBEAT {type : 2, autopilot : 3, base_mode : 89, custom_mode : 4, system_status : 3, mavlink_version : 3}
2025-11-18 17:34:54 [DEBUG] MAVLINK [AHRS] AHRS {omegaIx : -0.00038623029831796885, omegaIy : 0.00012389772746246308, omegaIz : 0.0026055006310343742, accel_weight : 0.0, renorm_val : 0.0, error_rp : 0.0006476686103269458, error_yaw : 0.0011887296568602324}
2025-11-18 17:34:54 [DEBUG] MAVLINK [AHRS2] AHRS2 {roll : -0.003466429654508829, pitch : -0.01596301980316639, yaw : 1.7759391069412231, altitude : 591.3599853515625, lat : 174481508, lng : 783810620}
2025-11-18 17:34:54 [DEBUG] MAVLINK [ATTITUDE] ATTITUDE {time_boot_ms : 736156, roll : -0.011257827281951904, pitch : -0.022646747529506683, yaw : 1.7788450717926025, rollspeed : -0.00023713787959422916, pitchspeed : 9.468545613344759e-06, yawspeed : -2.4698441848158836e-05}
2025-11-18 17:34:54 [DEBUG] MAVLINK [GLOBAL_POSITION_INT] GLOBAL_POSITION_INT {time_boot_ms : 736156, lat : 174481490, lon : 783810630, alt : 589780, relative_alt : -166, vx : 1, vy : 0, vz : 0, hdg : 10192}
2025-11-18 17:34:54 [DEBUG] MAVLINK [VFR_HUD] VFR_HUD {airspeed : 0.012238728813827038, groundspeed : 0.012053065001964569, heading : 101, throttle : 0, alt : 589.7799682617188, climb : -0.0021237044129520655}
2025-11-18 17:34:54 [DEBUG] MAVLINK [SYS_STATUS] SYS_STATUS {onboard_control_sensors_present : 1399979055, onboard_control_sensors_enabled : 1113717807, onboard_control_sensors_health : 1198652431, load : 328, voltage_battery : 11112, current_battery : 1, battery_remaining : 99, drop_rate_comm : 0, errors_comm : 0, errors_count1 : 0, errors_count2 : 0, errors_count3 : 0, errors_count4 : 0}
2025-11-18 17:34:54 [DEBUG] MAVLINK [POWER_STATUS] POWER_STATUS {Vcc : 5264, Vservo : 5040, flags : 5}
2025-11-18 17:34:54 [DEBUG] MAVLINK [MEMINFO] MEMINFO {brkval : 0, freemem : 65535, freemem32 : 572728}
2025-11-18 17:34:54 [DEBUG] MAVLINK [NAV_CONTROLLER_OUTPUT] NAV_CONTROLLER_OUTPUT {nav_roll : 0.0015338751254603267, nav_pitch : 0.0024343817494809628, nav_bearing : 101, target_bearing : 0, wp_dist : 0, alt_error : 0.0, aspd_error : 0.0, xtrack_error : 0.0}
2025-11-18 17:34:54 [DEBUG] MAVLINK [MISSION_CURRENT] MISSION_CURRENT {seq : 0, total : 0, mission_state : 1, mission_mode : 0}
2025-11-18 17:34:54 [DEBUG] MAVLINK [SERVO_OUTPUT_RAW] SERVO_OUTPUT_RAW {time_usec : 736156801, port : 0, servo1_raw : 1000, servo2_raw : 1000, servo3_raw : 1000, servo4_raw : 1000, servo5_raw : 0, servo6_raw : 0, servo7_raw : 0, servo8_raw : 0, servo9_raw : 0, servo10_raw : 0, servo11_raw : 0, servo12_raw : 0, servo13_raw : 0, servo14_raw : 0, servo15_raw : 0, servo16_raw : 0}
2025-11-18 17:34:54 [DEBUG] MAVLINK [RC_CHANNELS] RC_CHANNELS {time_boot_ms : 736156, chancount : 8, chan1_raw : 1499, chan2_raw : 1504, chan3_raw : 1011, chan4_raw : 1498, chan5_raw : 999, chan6_raw : 999, chan7_raw : 1499, chan8_raw : 1500, chan9_raw : 0, chan10_raw : 0, chan11_raw : 0, chan12_raw : 0, chan13_raw : 0, chan14_raw : 0, chan15_raw : 0, chan16_raw : 0, chan17_raw : 0, chan18_raw : 0, rssi : 255}
2025-11-18 17:34:54 [DEBUG] MAVLINK [RAW_IMU] RAW_IMU {time_usec : 736156834, xacc : -9, yacc : 38, zacc : -999, xgyro : 0, ygyro : 0, zgyro : -2, xmag : -74, ymag : -346, zmag : 104, id : 0, temperature : 4480}
2025-11-18 17:34:54 [DEBUG] MAVLINK [SCALED_IMU2] SCALED_IMU2 {time_boot_ms : 736159, xacc : -6, yacc : 35, zacc : -999, xgyro : 2, ygyro : -2, zgyro : -1, xmag : -128, ymag : -388, zmag : 161, temperature : 4880}
2025-11-18 17:34:54 [DEBUG] MAVLINK [SCALED_IMU3] SCALED_IMU3 {time_boot_ms : 736159, xacc : -1, yacc : 27, zacc : -1000, xgyro : -3, ygyro : -1, zgyro : 0, xmag : 0, ymag : 0, zmag : 0, temperature : 4808}
2025-11-18 17:34:54 [DEBUG] MAVLINK [SCALED_PRESSURE] SCALED_PRESSURE {time_boot_ms : 736159, press_abs : 949.0658569335938, press_diff : 0.0, temperature : 4682, temperature_press_diff : 0}
2025-11-18 17:34:54 [DEBUG] MAVLINK [SCALED_PRESSURE2] SCALED_PRESSURE2 {time_boot_ms : 736159, press_abs : 949.1051635742188, press_diff : 0.0, temperature : 4425, temperature_press_diff : 0}
2025-11-18 17:34:54 [DEBUG] MAVLINK [GPS_RAW_INT] GPS_RAW_INT {time_usec : 736084000, fix_type : 4, lat : 174481508, lon : 783810620, alt : 575260, eph : 89, epv : 143, vel : 3, cog : 7396, satellites_visible : 17, alt_ellipsoid : 501165, h_acc : 1260, v_acc : 1690, vel_acc : 340, hdg_acc : 0, yaw : 0}
2025-11-18 17:34:54 [DEBUG] MAVLINK [SYSTEM_TIME] SYSTEM_TIME {time_unix_usec : 1763467494574453, time_boot_ms : 736159}
2025-11-18 17:34:54 [DEBUG] MAVLINK [WIND] WIND {direction : -180.0, speed : 0.0, speed_z : 0.0}
2025-11-18 17:34:54 [DEBUG] MAVLINK [TERRAIN_REPORT] TERRAIN_REPORT {lat : 174481490, lon : 783810630, spacing : 100, terrain_height : 589.9500122070312, current_height : -0.17002539336681366, pending : 0, loaded : 504}
2025-11-18 17:34:54 [DEBUG] MAVLINK [EKF_STATUS_REPORT] EKF_STATUS_REPORT {flags : 831, velocity_variance : 0.027348291128873825, pos_horiz_variance : 0.024758759886026382, pos_vert_variance : 0.036390140652656555, compass_variance : 0.00031019916059449315, terrain_alt_variance : 0.0, airspeed_variance : 0.0}
2025-11-18 17:34:54 [DEBUG] MAVLINK [LOCAL_POSITION_NED] LOCAL_POSITION_NED {time_boot_ms : 736159, x : 0.5906981229782104, y : -2.7857837677001953, z : -1.7731845378875732, vx : 0.010229133069515228, vy : 0.006407929118722677, vz : 0.002143294084817171}
2025-11-18 17:34:54 [DEBUG] MAVLINK [VIBRATION] VIBRATION {time_usec : 736159382, vibration_x : 0.0069039021618664265, vibration_y : 0.007321586366742849, vibration_z : 0.009164996445178986, clipping_0 : 27, clipping_1 : 54, clipping_2 : 15}
2025-11-18 17:34:54 [DEBUG] MAVLINK [BATTERY_STATUS] BATTERY_STATUS {id : 0, battery_function : 0, type : 0, temperature : 32767, voltages : [11112, 65535, 65535, 65535, 65535, 65535, 65535, 65535, 65535, 65535], current_battery : 1, current_consumed : 35, energy_consumed : 13, battery_remaining : 99, time_remaining : 0, charge_state : 1, voltages_ext : [0, 0, 0, 0], mode : 0, fault_bitmask : 0}
2025-11-18 17:34:54 [DEBUG] MAVLINK [MCU_STATUS] MCU_STATUS {id : 0, MCU_temperature : 4582, MCU_voltage : 3285, MCU_voltage_min : 3276, MCU_voltage_max : 3292}
2025-11-18 17:34:54 [DEBUG] MAVLINK [HEARTBEAT] HEARTBEAT {type : 6, autopilot : 8, base_mode : 192, custom_mode : 0, system_status : 4, mavlink_version : 3}
2025-11-18 17:34:54 [DEBUG] MAVLINK [HEARTBEAT] HEARTBEAT {type : 27, autopilot : 8, base_mode : 4, custom_mode : 0, system_status : 4, mavlink_version : 3}
2025-11-18 17:34:54 [DEBUG] MAVLINK [HEARTBEAT] HEARTBEAT {type : 2, autopilot : 3, base_mode : 89, custom_mode : 4, system_status : 3, mavlink_version : 3}
2025-11-18 17:34:54 [DEBUG] MAVLINK [AHRS] AHRS {omegaIx : -0.00038791613769717515, omegaIy : 0.00011696371075231582, omegaIz : 0.002607641974464059, accel_weight : 0.0, renorm_val : 0.0, error_rp : 0.0007329123909585178, error_yaw : 0.0015079070581123233}
2025-11-18 17:34:54 [DEBUG] MAVLINK [AHRS2] AHRS2 {roll : -0.0034413915127515793, pitch : -0.015972279012203217, yaw : 1.7758972644805908, altitude : 592.0899658203125, lat : 174481510, lng : 783810621}
2025-11-18 17:34:54 [DEBUG] MAVLINK [ATTITUDE] ATTITUDE {time_boot_ms : 736406, roll : -0.011330362409353256, pitch : -0.022747324779629707, yaw : 1.7788333892822266, rollspeed : -0.0005032899789512157, pitchspeed : 0.0001654253137530759, yawspeed : -0.00012058857828378677}
2025-11-18 17:34:54 [DEBUG] MAVLINK [GLOBAL_POSITION_INT] GLOBAL_POSITION_INT {time_boot_ms : 736406, lat : 174481492, lon : 783810630, alt : 589770, relative_alt : -170, vx : 1, vy : 0, vz : 0, hdg : 10191}
2025-11-18 17:34:54 [DEBUG] MAVLINK [VFR_HUD] VFR_HUD {airspeed : 0.017056651413440704, groundspeed : 0.016955837607383728, heading : 101, throttle : 0, alt : 589.7699584960938, climb : -0.0018517249263823032}
2025-11-18 17:34:54 [DEBUG] MAVLINK [SYS_STATUS] SYS_STATUS {onboard_control_sensors_present : 1399979055, onboard_control_sensors_enabled : 1113717807, onboard_control_sensors_health : 1198652431, load : 319, voltage_battery : 11110, current_battery : 1, battery_remaining : 99, drop_rate_comm : 0, errors_comm : 0, errors_count1 : 0, errors_count2 : 0, errors_count3 : 0, errors_count4 : 0}
2025-11-18 17:34:54 [DEBUG] MAVLINK [POWER_STATUS] POWER_STATUS {Vcc : 5292, Vservo : 5021, flags : 5}
2025-11-18 17:34:54 [DEBUG] MAVLINK [MEMINFO] MEMINFO {brkval : 0, freemem : 65535, freemem32 : 572728}
2025-11-18 17:34:54 [DEBUG] MAVLINK [NAV_CONTROLLER_OUTPUT] NAV_CONTROLLER_OUTPUT {nav_roll : 0.0002856729843188077, nav_pitch : 0.0004533858154900372, nav_bearing : 101, target_bearing : 0, wp_dist : 0, alt_error : 0.0, aspd_error : 0.0, xtrack_error : 0.0}
2025-11-18 17:34:54 [DEBUG] MAVLINK [MISSION_CURRENT] MISSION_CURRENT {seq : 0, total : 0, mission_state : 1, mission_mode : 0}
2025-11-18 17:34:54 [DEBUG] MAVLINK [SERVO_OUTPUT_RAW] SERVO_OUTPUT_RAW {time_usec : 736406837, port : 0, servo1_raw : 1000, servo2_raw : 1000, servo3_raw : 1000, servo4_raw : 1000, servo5_raw : 0, servo6_raw : 0, servo7_raw : 0, servo8_raw : 0, servo9_raw : 0, servo10_raw : 0, servo11_raw : 0, servo12_raw : 0, servo13_raw : 0, servo14_raw : 0, servo15_raw : 0, servo16_raw : 0}
2025-11-18 17:34:54 [DEBUG] MAVLINK [RC_CHANNELS] RC_CHANNELS {time_boot_ms : 736406, chancount : 8, chan1_raw : 1499, chan2_raw : 1504, chan3_raw : 1011, chan4_raw : 1498, chan5_raw : 999, chan6_raw : 999, chan7_raw : 1499, chan8_raw : 1500, chan9_raw : 0, chan10_raw : 0, chan11_raw : 0, chan12_raw : 0, chan13_raw : 0, chan14_raw : 0, chan15_raw : 0, chan16_raw : 0, chan17_raw : 0, chan18_raw : 0, rssi : 255}
2025-11-18 17:34:54 [DEBUG] MAVLINK [RAW_IMU] RAW_IMU {time_usec : 736406868, xacc : -9, yacc : 38, zacc : -999, xgyro : 0, ygyro : 0, zgyro : -2, xmag : -75, ymag : -346, zmag : 104, id : 0, temperature : 4480}
2025-11-18 17:34:54 [DEBUG] MAVLINK [SCALED_IMU2] SCALED_IMU2 {time_boot_ms : 736406, xacc : -6, yacc : 35, zacc : -999, xgyro : 3, ygyro : -1, zgyro : -1, xmag : -124, ymag : -371, zmag : 183, temperature : 4880}
2025-11-18 17:34:54 [DEBUG] MAVLINK [SCALED_IMU3] SCALED_IMU3 {time_boot_ms : 736406, xacc : 0, yacc : 26, zacc : -1001, xgyro : -4, ygyro : -2, zgyro : 0, xmag : 0, ymag : 0, zmag : 0, temperature : 4808}
2025-11-18 17:34:54 [DEBUG] MAVLINK [SCALED_PRESSURE] SCALED_PRESSURE {time_boot_ms : 736406, press_abs : 948.9833984375, press_diff : 0.0, temperature : 4682, temperature_press_diff : 0}
2025-11-18 17:34:54 [DEBUG] MAVLINK [SCALED_PRESSURE2] SCALED_PRESSURE2 {time_boot_ms : 736409, press_abs : 949.1286010742188, press_diff : 0.0, temperature : 4425, temperature_press_diff : 0}
2025-11-18 17:34:54 [DEBUG] MAVLINK [GPS_RAW_INT] GPS_RAW_INT {time_usec : 736284000, fix_type : 4, lat : 174481510, lon : 783810620, alt : 575290, eph : 89, epv : 143, vel : 5, cog : 7396, satellites_visible : 17, alt_ellipsoid : 501195, h_acc : 1257, v_acc : 1682, vel_acc : 279, hdg_acc : 0, yaw : 0}
2025-11-18 17:34:54 [DEBUG] MAVLINK [SYSTEM_TIME] SYSTEM_TIME {time_unix_usec : 1763467494824419, time_boot_ms : 736409}
2025-11-18 17:34:54 [DEBUG] MAVLINK [WIND] WIND {direction : -180.0, speed : 0.0, speed_z : 0.0}
2025-11-18 17:34:54 [DEBUG] MAVLINK [TERRAIN_REPORT] TERRAIN_REPORT {lat : 174481492, lon : 783810630, spacing : 100, terrain_height : 589.9500732421875, current_height : -0.1800864189863205, pending : 0, loaded : 504}
2025-11-18 17:34:54 [DEBUG] MAVLINK [EKF_STATUS_REPORT] EKF_STATUS_REPORT {flags : 831, velocity_variance : 0.01864670217037201, pos_horiz_variance : 0.025232873857021332, pos_vert_variance : 0.01709086261689663, compass_variance : 0.00018468328926246613, terrain_alt_variance : 0.0, airspeed_variance : 0.0}
2025-11-18 17:34:54 [DEBUG] MAVLINK [LOCAL_POSITION_NED] LOCAL_POSITION_NED {time_boot_ms : 736409, x : 0.6084170937538147, y : -2.784693717956543, z : -1.76942777633667, vx : 0.013922939077019691, vy : 0.00970320776104927, vz : 0.001847845152951777}
2025-11-18 17:34:54 [DEBUG] MAVLINK [VIBRATION] VIBRATION {time_usec : 736409346, vibration_x : 0.00779305025935173, vibration_y : 0.006911552976816893, vibration_z : 0.00810955185443163, clipping_0 : 27, clipping_1 : 54, clipping_2 : 15}
2025-11-18 17:34:54 [DEBUG] MAVLINK [BATTERY_STATUS] BATTERY_STATUS {id : 0, battery_function : 0, type : 0, temperature : 32767, voltages : [11110, 65535, 65535, 65535, 65535, 65535, 65535, 65535, 65535, 65535], current_battery : 1, current_consumed : 35, energy_consumed : 13, battery_remaining : 99, time_remaining : 0, charge_state : 1, voltages_ext : [0, 0, 0, 0], mode : 0, fault_bitmask : 0}
2025-11-18 17:34:54 [DEBUG] MAVLINK [MCU_STATUS] MCU_STATUS {id : 0, MCU_temperature : 4582, MCU_voltage : 3285, MCU_voltage_min : 3278, MCU_voltage_max : 3292}
2025-11-18 17:34:55 [DEBUG] MAVLINK [AHRS] AHRS {omegaIx : -0.000382540951250121, omegaIy : 0.00011855228513013572, omegaIz : 0.0026060552336275578, accel_weight : 0.0, renorm_val : 0.0, error_rp : 0.0009043688769452274, error_yaw : 0.001747450907714665}
2025-11-18 17:34:55 [DEBUG] MAVLINK [AHRS2] AHRS2 {roll : -0.0034023812040686607, pitch : -0.01598651148378849, yaw : 1.7758419513702393, altitude : 591.6199951171875, lat : 174481512, lng : 783810619}
2025-11-18 17:34:55 [DEBUG] MAVLINK [ATTITUDE] ATTITUDE {time_boot_ms : 736656, roll : -0.011290747672319412, pitch : -0.022838173434138298, yaw : 1.7788026332855225, rollspeed : -0.00026182024157606065, pitchspeed : -0.00013007289089728147, yawspeed : 2.1805288270115852e-05}
2025-11-18 17:34:55 [DEBUG] MAVLINK [GLOBAL_POSITION_INT] GLOBAL_POSITION_INT {time_boot_ms : 736656, lat : 174481493, lon : 783810630, alt : 589780, relative_alt : -167, vx : 1, vy : 1, vz : 0, hdg : 10191}
2025-11-18 17:34:55 [DEBUG] MAVLINK [VFR_HUD] VFR_HUD {airspeed : 0.01938977837562561, groundspeed : 0.01938435062766075, heading : 101, throttle : 0, alt : 589.7799682617188, climb : -0.00045877473894506693}
2025-11-18 17:34:55 [DEBUG] MAVLINK [SYS_STATUS] SYS_STATUS {onboard_control_sensors_present : 1399979055, onboard_control_sensors_enabled : 1113717807, onboard_control_sensors_health : 1198652431, load : 322, voltage_battery : 11106, current_battery : 1, battery_remaining : 99, drop_rate_comm : 0, errors_comm : 0, errors_count1 : 0, errors_count2 : 0, errors_count3 : 0, errors_count4 : 0}
2025-11-18 17:34:55 [DEBUG] MAVLINK [POWER_STATUS] POWER_STATUS {Vcc : 5266, Vservo : 5021, flags : 5}
2025-11-18 17:34:55 [DEBUG] MAVLINK [MEMINFO] MEMINFO {brkval : 0, freemem : 65535, freemem32 : 572728}
2025-11-18 17:34:55 [DEBUG] MAVLINK [NAV_CONTROLLER_OUTPUT] NAV_CONTROLLER_OUTPUT {nav_roll : 0.00021465632016770542, nav_pitch : 0.0003406766045372933, nav_bearing : 101, target_bearing : 0, wp_dist : 0, alt_error : 0.0, aspd_error : 0.0, xtrack_error : 0.0}
2025-11-18 17:34:55 [DEBUG] MAVLINK [MISSION_CURRENT] MISSION_CURRENT {seq : 0, total : 0, mission_state : 1, mission_mode : 0}
2025-11-18 17:34:55 [DEBUG] MAVLINK [SERVO_OUTPUT_RAW] SERVO_OUTPUT_RAW {time_usec : 736659121, port : 0, servo1_raw : 1000, servo2_raw : 1000, servo3_raw : 1000, servo4_raw : 1000, servo5_raw : 0, servo6_raw : 0, servo7_raw : 0, servo8_raw : 0, servo9_raw : 0, servo10_raw : 0, servo11_raw : 0, servo12_raw : 0, servo13_raw : 0, servo14_raw : 0, servo15_raw : 0, servo16_raw : 0}
2025-11-18 17:34:55 [DEBUG] MAVLINK [RC_CHANNELS] RC_CHANNELS {time_boot_ms : 736659, chancount : 8, chan1_raw : 1499, chan2_raw : 1504, chan3_raw : 1011, chan4_raw : 1498, chan5_raw : 999, chan6_raw : 999, chan7_raw : 1499, chan8_raw : 1500, chan9_raw : 0, chan10_raw : 0, chan11_raw : 0, chan12_raw : 0, chan13_raw : 0, chan14_raw : 0, chan15_raw : 0, chan16_raw : 0, chan17_raw : 0, chan18_raw : 0, rssi : 255}
2025-11-18 17:34:55 [DEBUG] MAVLINK [RAW_IMU] RAW_IMU {time_usec : 736659156, xacc : -9, yacc : 37, zacc : -999, xgyro : 0, ygyro : 0, zgyro : -2, xmag : -73, ymag : -345, zmag : 103, id : 0, temperature : 4528}
2025-11-18 17:34:55 [DEBUG] MAVLINK [SCALED_IMU2] SCALED_IMU2 {time_boot_ms : 736659, xacc : -7, yacc : 35, zacc : -998, xgyro : 2, ygyro : -1, zgyro : -1, xmag : -127, ymag : -375, zmag : 177, temperature : 4880}
2025-11-18 17:34:55 [DEBUG] MAVLINK [SCALED_IMU3] SCALED_IMU3 {time_boot_ms : 736659, xacc : -1, yacc : 27, zacc : -999, xgyro : -4, ygyro : 0, zgyro : -2, xmag : 0, ymag : 0, zmag : 0, temperature : 4808}
2025-11-18 17:34:55 [DEBUG] MAVLINK [SCALED_PRESSURE] SCALED_PRESSURE {time_boot_ms : 736659, press_abs : 949.0365600585938, press_diff : 0.0, temperature : 4683, temperature_press_diff : 0}
2025-11-18 17:34:55 [DEBUG] MAVLINK [SCALED_PRESSURE2] SCALED_PRESSURE2 {time_boot_ms : 736659, press_abs : 949.1159057617188, press_diff : 0.0, temperature : 4425, temperature_press_diff : 0}
2025-11-18 17:34:55 [DEBUG] MAVLINK [GPS_RAW_INT] GPS_RAW_INT {time_usec : 736484000, fix_type : 4, lat : 174481512, lon : 783810619, alt : 575300, eph : 89, epv : 143, vel : 2, cog : 7396, satellites_visible : 17, alt_ellipsoid : 501205, h_acc : 1252, v_acc : 1676, vel_acc : 264, hdg_acc : 0, yaw : 0}
2025-11-18 17:34:55 [DEBUG] MAVLINK [SYSTEM_TIME] SYSTEM_TIME {time_unix_usec : 1763467495074494, time_boot_ms : 736659}
2025-11-18 17:34:55 [DEBUG] MAVLINK [WIND] WIND {direction : -180.0, speed : 0.0, speed_z : 0.0}
2025-11-18 17:34:55 [DEBUG] MAVLINK [TERRAIN_REPORT] TERRAIN_REPORT {lat : 174481493, lon : 783810630, spacing : 100, terrain_height : 589.9500732421875, current_height : -0.17008642852306366, pending : 0, loaded : 504}
2025-11-18 17:34:55 [DEBUG] MAVLINK [EKF_STATUS_REPORT] EKF_STATUS_REPORT {flags : 831, velocity_variance : 0.018420016393065453, pos_horiz_variance : 0.026874510571360588, pos_vert_variance : 0.009921513497829437, compass_variance : 0.0012765254359692335, terrain_alt_variance : 0.0, airspeed_variance : 0.0}
2025-11-18 17:34:55 [DEBUG] MAVLINK [LOCAL_POSITION_NED] LOCAL_POSITION_NED {time_boot_ms : 736659, x : 0.6247060894966125, y : -2.78581166267395, z : -1.7729721069335938, vx : 0.015411511063575745, vy : 0.011781958863139153, vz : 0.0004278339329175651}
2025-11-18 17:34:55 [DEBUG] MAVLINK [VIBRATION] VIBRATION {time_usec : 736659395, vibration_x : 0.00838883500546217, vibration_y : 0.008237346075475216, vibration_z : 0.008402569219470024, clipping_0 : 27, clipping_1 : 54, clipping_2 : 15}
2025-11-18 17:34:55 [DEBUG] MAVLINK [BATTERY_STATUS] BATTERY_STATUS {id : 0, battery_function : 0, type : 0, temperature : 32767, voltages : [11106, 65535, 65535, 65535, 65535, 65535, 65535, 65535, 65535, 65535], current_battery : 1, current_consumed : 35, energy_consumed : 13, battery_remaining : 99, time_remaining : 0, charge_state : 1, voltages_ext : [0, 0, 0, 0], mode : 0, fault_bitmask : 0}
2025-11-18 17:34:55 [DEBUG] MAVLINK [MCU_STATUS] MCU_STATUS {id : 0, MCU_temperature : 4586, MCU_voltage : 3285, MCU_voltage_min : 3277, MCU_voltage_max : 3291}
2025-11-18 17:34:55 [DEBUG] MAVLINK [AHRS] AHRS {omegaIx : -0.0003828803601209074, omegaIy : 0.00012645931565202773, omegaIz : 0.0026049898006021976, accel_weight : 0.0, renorm_val : 0.0, error_rp : 0.0008703976054675877, error_yaw : 0.0016111263539642096}
2025-11-18 17:34:55 [DEBUG] MAVLINK [AHRS2] AHRS2 {roll : -0.00337522616609931, pitch : -0.01597868837416172, yaw : 1.7758389711380005, altitude : 591.75, lat : 174481515, lng : 783810618}
2025-11-18 17:34:55 [DEBUG] MAVLINK [ATTITUDE] ATTITUDE {time_boot_ms : 736906, roll : -0.011279553174972534, pitch : -0.022684622555971146, yaw : 1.7787803411483765, rollspeed : -3.5589386243373156e-05, pitchspeed : -0.00045974619570188224, yawspeed : 0.00010221125558018684}
2025-11-18 17:34:55 [DEBUG] MAVLINK [GLOBAL_POSITION_INT] GLOBAL_POSITION_INT {time_boot_ms : 736906, lat : 174481494, lon : 783810629, alt : 589780, relative_alt : -166, vx : 1, vy : 0, vz : 0, hdg : 10191}
2025-11-18 17:34:55 [DEBUG] MAVLINK [VFR_HUD] VFR_HUD {airspeed : 0.02026362530887127, groundspeed : 0.020260468125343323, heading : 101, throttle : 0, alt : 589.7799682617188, climb : 0.0003576759190764278}
2025-11-18 17:34:55 [DEBUG] MAVLINK [SYS_STATUS] SYS_STATUS {onboard_control_sensors_present : 1399979055, onboard_control_sensors_enabled : 1113717807, onboard_control_sensors_health : 1198652431, load : 306, voltage_battery : 11120, current_battery : 2, battery_remaining : 99, drop_rate_comm : 0, errors_comm : 0, errors_count1 : 0, errors_count2 : 0, errors_count3 : 0, errors_count4 : 0}
2025-11-18 17:34:55 [DEBUG] MAVLINK [POWER_STATUS] POWER_STATUS {Vcc : 5281, Vservo : 5026, flags : 5}
2025-11-18 17:34:55 [DEBUG] MAVLINK [MEMINFO] MEMINFO {brkval : 0, freemem : 65535, freemem32 : 572728}
2025-11-18 17:34:55 [DEBUG] MAVLINK [NAV_CONTROLLER_OUTPUT] NAV_CONTROLLER_OUTPUT {nav_roll : 0.00021465621830429882, nav_pitch : 0.00034067645901814103, nav_bearing : 101, target_bearing : 0, wp_dist : 0, alt_error : 0.0, aspd_error : 0.0, xtrack_error : 0.0}
2025-11-18 17:34:55 [DEBUG] MAVLINK [MISSION_CURRENT] MISSION_CURRENT {seq : 0, total : 0, mission_state : 1, mission_mode : 0}
2025-11-18 17:34:55 [DEBUG] MAVLINK [SERVO_OUTPUT_RAW] SERVO_OUTPUT_RAW {time_usec : 736906839, port : 0, servo1_raw : 1000, servo2_raw : 1000, servo3_raw : 1000, servo4_raw : 1000, servo5_raw : 0, servo6_raw : 0, servo7_raw : 0, servo8_raw : 0, servo9_raw : 0, servo10_raw : 0, servo11_raw : 0, servo12_raw : 0, servo13_raw : 0, servo14_raw : 0, servo15_raw : 0, servo16_raw : 0}
2025-11-18 17:34:55 [DEBUG] MAVLINK [RC_CHANNELS] RC_CHANNELS {time_boot_ms : 736906, chancount : 8, chan1_raw : 1499, chan2_raw : 1504, chan3_raw : 1011, chan4_raw : 1498, chan5_raw : 999, chan6_raw : 999, chan7_raw : 1499, chan8_raw : 1500, chan9_raw : 0, chan10_raw : 0, chan11_raw : 0, chan12_raw : 0, chan13_raw : 0, chan14_raw : 0, chan15_raw : 0, chan16_raw : 0, chan17_raw : 0, chan18_raw : 0, rssi : 255}
2025-11-18 17:34:55 [DEBUG] MAVLINK [RAW_IMU] RAW_IMU {time_usec : 736909168, xacc : -9, yacc : 38, zacc : -999, xgyro : 0, ygyro : 0, zgyro : -2, xmag : -74, ymag : -345, zmag : 104, id : 0, temperature : 4528}
2025-11-18 17:34:55 [DEBUG] MAVLINK [SCALED_IMU2] SCALED_IMU2 {time_boot_ms : 736909, xacc : -6, yacc : 35, zacc : -1000, xgyro : 2, ygyro : -1, zgyro : -1, xmag : -124, ymag : -390, zmag : 162, temperature : 4880}
2025-11-18 17:34:55 [DEBUG] MAVLINK [SCALED_IMU3] SCALED_IMU3 {time_boot_ms : 736909, xacc : 0, yacc : 27, zacc : -1001, xgyro : -6, ygyro : -1, zgyro : 0, xmag : 0, ymag : 0, zmag : 0, temperature : 4807}
2025-11-18 17:34:55 [DEBUG] MAVLINK [SCALED_PRESSURE] SCALED_PRESSURE {time_boot_ms : 736909, press_abs : 949.0219116210938, press_diff : 0.0, temperature : 4682, temperature_press_diff : 0}
2025-11-18 17:34:55 [DEBUG] MAVLINK [SCALED_PRESSURE2] SCALED_PRESSURE2 {time_boot_ms : 736909, press_abs : 949.1119995117188, press_diff : 0.0, temperature : 4425, temperature_press_diff : 0}
2025-11-18 17:34:55 [DEBUG] MAVLINK [GPS_RAW_INT] GPS_RAW_INT {time_usec : 736684000, fix_type : 4, lat : 174481515, lon : 783810619, alt : 575370, eph : 89, epv : 143, vel : 4, cog : 7396, satellites_visible : 17, alt_ellipsoid : 501276, h_acc : 1248, v_acc : 1669, vel_acc : 312, hdg_acc : 0, yaw : 0}
2025-11-18 17:34:55 [DEBUG] MAVLINK [SYSTEM_TIME] SYSTEM_TIME {time_unix_usec : 1763467495324505, time_boot_ms : 736909}
2025-11-18 17:34:55 [DEBUG] MAVLINK [WIND] WIND {direction : -180.0, speed : 0.0, speed_z : 0.0}
2025-11-18 17:34:55 [INFO] Arming motors...
2025-11-18 17:34:55 [DEBUG] MAVLINK [TERRAIN_REPORT] TERRAIN_REPORT {lat : 174481494, lon : 783810629, spacing : 100, terrain_height : 589.9498901367188, current_height : -0.16990332305431366, pending : 0, loaded : 504}
2025-11-18 17:34:55 [INFO] Waiting for motors to arm...
2025-11-18 17:34:55 [DEBUG] MAVLINK [EKF_STATUS_REPORT] EKF_STATUS_REPORT {flags : 831, velocity_variance : 0.019282061606645584, pos_horiz_variance : 0.028980989009141922, pos_vert_variance : 0.014750436879694462, compass_variance : 0.0017582621658220887, terrain_alt_variance : 0.0, airspeed_variance : 0.0}
2025-11-18 17:34:55 [DEBUG] MAVLINK [LOCAL_POSITION_NED] LOCAL_POSITION_NED {time_boot_ms : 736909, x : 0.6441192030906677, y : -2.7957160472869873, z : -1.7732117176055908, vx : 0.01847868598997593, vy : 0.008307737298309803, vz : -0.0003454678226262331}
2025-11-18 17:34:55 [DEBUG] MAVLINK [VIBRATION] VIBRATION {time_usec : 736909405, vibration_x : 0.0068772840313613415, vibration_y : 0.006530092563480139, vibration_z : 0.009416437707841396, clipping_0 : 27, clipping_1 : 54, clipping_2 : 15}
2025-11-18 17:34:55 [DEBUG] MAVLINK [BATTERY_STATUS] BATTERY_STATUS {id : 0, battery_function : 0, type : 0, temperature : 32767, voltages : [11120, 65535, 65535, 65535, 65535, 65535, 65535, 65535, 65535, 65535], current_battery : 2, current_consumed : 35, energy_consumed : 13, battery_remaining : 99, time_remaining : 0, charge_state : 1, voltages_ext : [0, 0, 0, 0], mode : 0, fault_bitmask : 0}
2025-11-18 17:34:55 [DEBUG] MAVLINK [MCU_STATUS] MCU_STATUS {id : 0, MCU_temperature : 4584, MCU_voltage : 3285, MCU_voltage_min : 3279, MCU_voltage_max : 3290}
2025-11-18 17:34:55 [DEBUG] MAVLINK [COMMAND_ACK] COMMAND_ACK {command : 400, result : 0, progress : 0, result_param2 : 0, target_system : 255, target_component : 0}
2025-11-18 17:34:55 [DEBUG] MAVLINK [GPS_GLOBAL_ORIGIN] GPS_GLOBAL_ORIGIN {latitude : 174481437, longitude : 783810892, altitude : 588010, time_usec : 736921992}
2025-11-18 17:34:55 [DEBUG] MAVLINK [HOME_POSITION] HOME_POSITION {latitude : 174481494, longitude : 783810629, altitude : 589780, x : 0.6345174312591553, y : -2.7929794788360596, z : -1.7699999809265137, q : [nan, nan, nan, nan], approach_x : 0.0, approach_y : 0.0, approach_z : 0.0, time_usec : 736922003}
2025-11-18 17:34:55 [DEBUG] MAVLINK [STATUSTEXT] STATUSTEXT {severity : 4, text : Warning: Arming Checks Disabled, id : 0, chunk_seq : 0}
2025-11-18 17:34:55 [DEBUG] MAVLINK [HEARTBEAT] HEARTBEAT {type : 6, autopilot : 8, base_mode : 192, custom_mode : 0, system_status : 4, mavlink_version : 3}
2025-11-18 17:34:55 [DEBUG] MAVLINK [AHRS] AHRS {omegaIx : -0.0003880686708725989, omegaIy : 0.00012366674491204321, omegaIz : 0.0026055844500660896, accel_weight : 0.0, renorm_val : 0.0, error_rp : 0.003376345383003354, error_yaw : 0.001367595512419939}
2025-11-18 17:34:55 [DEBUG] MAVLINK [AHRS2] AHRS2 {roll : -0.003415413899347186, pitch : -0.01613018661737442, yaw : 1.7757827043533325, altitude : 591.7000122070312, lat : 174481517, lng : 783810618}
2025-11-18 17:34:55 [DEBUG] MAVLINK [ATTITUDE] ATTITUDE {time_boot_ms : 737156, roll : -0.011315494775772095, pitch : -0.022684697061777115, yaw : 1.7787442207336426, rollspeed : -0.0001346543722320348, pitchspeed : -0.0003776154189836234, yawspeed : -0.0003752857446670532}
2025-11-18 17:34:55 [DEBUG] MAVLINK [GLOBAL_POSITION_INT] GLOBAL_POSITION_INT {time_boot_ms : 737156, lat : 174481496, lon : 783810629, alt : 589780, relative_alt : 3, vx : 2, vy : 0, vz : 0, hdg : 10191}
2025-11-18 17:34:55 [DEBUG] MAVLINK [VFR_HUD] VFR_HUD {airspeed : 0.022840725257992744, groundspeed : 0.022837186232209206, heading : 101, throttle : 0, alt : 589.7799682617188, climb : 0.00040204994729720056}
2025-11-18 17:34:55 [DEBUG] MAVLINK [SYS_STATUS] SYS_STATUS {onboard_control_sensors_present : 1399979055, onboard_control_sensors_enabled : 1130495023, onboard_control_sensors_health : 1198652431, load : 329, voltage_battery : 11111, current_battery : 1, battery_remaining : 99, drop_rate_comm : 0, errors_comm : 0, errors_count1 : 0, errors_count2 : 0, errors_count3 : 0, errors_count4 : 0}
2025-11-18 17:34:55 [DEBUG] MAVLINK [POWER_STATUS] POWER_STATUS {Vcc : 5259, Vservo : 5040, flags : 5}
2025-11-18 17:34:55 [DEBUG] MAVLINK [MEMINFO] MEMINFO {brkval : 0, freemem : 65535, freemem32 : 571736}
2025-11-18 17:34:55 [DEBUG] MAVLINK [NAV_CONTROLLER_OUTPUT] NAV_CONTROLLER_OUTPUT {nav_roll : 0.00021465643658302724, nav_pitch : 0.0003406764008104801, nav_bearing : 101, target_bearing : 0, wp_dist : 0, alt_error : 0.0, aspd_error : 0.0, xtrack_error : 0.0}
2025-11-18 17:34:55 [DEBUG] MAVLINK [MISSION_CURRENT] MISSION_CURRENT {seq : 0, total : 0, mission_state : 1, mission_mode : 0}
2025-11-18 17:34:55 [DEBUG] MAVLINK [SERVO_OUTPUT_RAW] SERVO_OUTPUT_RAW {time_usec : 737156857, port : 0, servo1_raw : 1000, servo2_raw : 1000, servo3_raw : 1000, servo4_raw : 1000, servo5_raw : 0, servo6_raw : 0, servo7_raw : 0, servo8_raw : 0, servo9_raw : 0, servo10_raw : 0, servo11_raw : 0, servo12_raw : 0, servo13_raw : 0, servo14_raw : 0, servo15_raw : 0, servo16_raw : 0}
2025-11-18 17:34:55 [DEBUG] MAVLINK [RC_CHANNELS] RC_CHANNELS {time_boot_ms : 737156, chancount : 8, chan1_raw : 1500, chan2_raw : 1503, chan3_raw : 1011, chan4_raw : 1498, chan5_raw : 999, chan6_raw : 999, chan7_raw : 1500, chan8_raw : 1499, chan9_raw : 0, chan10_raw : 0, chan11_raw : 0, chan12_raw : 0, chan13_raw : 0, chan14_raw : 0, chan15_raw : 0, chan16_raw : 0, chan17_raw : 0, chan18_raw : 0, rssi : 255}
2025-11-18 17:34:55 [DEBUG] MAVLINK [RAW_IMU] RAW_IMU {time_usec : 737156894, xacc : -9, yacc : 37, zacc : -999, xgyro : 0, ygyro : 0, zgyro : -2, xmag : -74, ymag : -345, zmag : 104, id : 0, temperature : 4480}
2025-11-18 17:34:55 [DEBUG] MAVLINK [SCALED_IMU2] SCALED_IMU2 {time_boot_ms : 737156, xacc : -8, yacc : 35, zacc : -998, xgyro : 3, ygyro : -1, zgyro : -2, xmag : -129, ymag : -377, zmag : 176, temperature : 4880}
2025-11-18 17:34:55 [DEBUG] MAVLINK [SCALED_IMU3] SCALED_IMU3 {time_boot_ms : 737159, xacc : -2, yacc : 29, zacc : -999, xgyro : -6, ygyro : 0, zgyro : 0, xmag : 0, ymag : 0, zmag : 0, temperature : 4808}
2025-11-18 17:34:55 [DEBUG] MAVLINK [SCALED_PRESSURE] SCALED_PRESSURE {time_boot_ms : 737159, press_abs : 949.0079956054688, press_diff : 0.0, temperature : 4682, temperature_press_diff : 0}
2025-11-18 17:34:55 [DEBUG] MAVLINK [SCALED_PRESSURE2] SCALED_PRESSURE2 {time_boot_ms : 737159, press_abs : 949.1090698242188, press_diff : 0.0, temperature : 4425, temperature_press_diff : 0}
2025-11-18 17:34:55 [DEBUG] MAVLINK [GPS_RAW_INT] GPS_RAW_INT {time_usec : 737084000, fix_type : 4, lat : 174481517, lon : 783810618, alt : 575400, eph : 89, epv : 143, vel : 4, cog : 7396, satellites_visible : 17, alt_ellipsoid : 501305, h_acc : 1254, v_acc : 1679, vel_acc : 318, hdg_acc : 0, yaw : 0}
2025-11-18 17:34:55 [DEBUG] MAVLINK [SYSTEM_TIME] SYSTEM_TIME {time_unix_usec : 1763467495574489, time_boot_ms : 737159}
2025-11-18 17:34:55 [DEBUG] MAVLINK [WIND] WIND {direction : -180.0, speed : 0.0, speed_z : 0.0}
2025-11-18 17:34:55 [DEBUG] MAVLINK [TERRAIN_REPORT] TERRAIN_REPORT {lat : 174481496, lon : 783810629, spacing : 100, terrain_height : 589.7799682617188, current_height : 1.8555670976638794e-05, pending : 0, loaded : 504}
2025-11-18 17:34:55 [DEBUG] MAVLINK [EKF_STATUS_REPORT] EKF_STATUS_REPORT {flags : 831, velocity_variance : 0.013120675459504128, pos_horiz_variance : 0.028620457276701927, pos_vert_variance : 0.0075660147704184055, compass_variance : 0.0004180010873824358, terrain_alt_variance : 0.0, airspeed_variance : 0.0}
2025-11-18 17:34:55 [DEBUG] MAVLINK [LOCAL_POSITION_NED] LOCAL_POSITION_NED {time_boot_ms : 737159, x : 0.660139799118042, y : -2.8009371757507324, z : -1.7731194496154785, vx : 0.021649034693837166, vy : 0.007321948651224375, vz : -0.00039687688695266843}
2025-11-18 17:34:55 [DEBUG] MAVLINK [VIBRATION] VIBRATION {time_usec : 737159365, vibration_x : 0.007839213125407696, vibration_y : 0.0070881410501897335, vibration_z : 0.0090453140437603, clipping_0 : 27, clipping_1 : 54, clipping_2 : 15}
2025-11-18 17:34:55 [DEBUG] MAVLINK [BATTERY_STATUS] BATTERY_STATUS {id : 0, battery_function : 0, type : 0, temperature : 32767, voltages : [11111, 65535, 65535, 65535, 65535, 65535, 65535, 65535, 65535, 65535], current_battery : 1, current_consumed : 35, energy_consumed : 13, battery_remaining : 99, time_remaining : 0, charge_state : 1, voltages_ext : [0, 0, 0, 0], mode : 0, fault_bitmask : 0}
2025-11-18 17:34:55 [DEBUG] MAVLINK [MCU_STATUS] MCU_STATUS {id : 0, MCU_temperature : 4584, MCU_voltage : 3285, MCU_voltage_min : 3278, MCU_voltage_max : 3290}
2025-11-18 17:34:55 [DEBUG] MAVLINK [HEARTBEAT] HEARTBEAT {type : 27, autopilot : 8, base_mode : 4, custom_mode : 0, system_status : 4, mavlink_version : 3}
2025-11-18 17:34:55 [DEBUG] MAVLINK [HEARTBEAT] HEARTBEAT {type : 2, autopilot : 3, base_mode : 217, custom_mode : 4, system_status : 3, mavlink_version : 3}
2025-11-18 17:34:55 [DEBUG] MAVLINK [AHRS] AHRS {omegaIx : -0.0003778550890274346, omegaIy : 0.00012380753469187766, omegaIz : 0.002604183740913868, accel_weight : 0.0, renorm_val : 0.0, error_rp : 0.008999506011605263, error_yaw : 0.0016859943279996514}
2025-11-18 17:34:55 [DEBUG] MAVLINK [AHRS2] AHRS2 {roll : -0.002857683692127466, pitch : -0.016472917050123215, yaw : 1.7757607698440552, altitude : 591.5499877929688, lat : 174481519, lng : 783810617}
2025-11-18 17:34:55 [DEBUG] MAVLINK [ATTITUDE] ATTITUDE {time_boot_ms : 737406, roll : -0.011304885149002075, pitch : -0.022750727832317352, yaw : 1.7787288427352905, rollspeed : -2.5118904886767268e-05, pitchspeed : 6.530896644107997e-05, yawspeed : -0.00021911528892815113}
2025-11-18 17:34:55 [DEBUG] MAVLINK [GLOBAL_POSITION_INT] GLOBAL_POSITION_INT {time_boot_ms : 737406, lat : 174481498, lon : 783810628, alt : 589780, relative_alt : 5, vx : 2, vy : 0, vz : 0, hdg : 10191}
2025-11-18 17:34:55 [DEBUG] MAVLINK [VFR_HUD] VFR_HUD {airspeed : 0.024831833317875862, groundspeed : 0.024814635515213013, heading : 101, throttle : 0, alt : 589.7799682617188, climb : 0.0009240270592272282}
2025-11-18 17:34:55 [DEBUG] MAVLINK [SYS_STATUS] SYS_STATUS {onboard_control_sensors_present : 1399979055, onboard_control_sensors_enabled : 1130495023, onboard_control_sensors_health : 1198652431, load : 323, voltage_battery : 11114, current_battery : 1, battery_remaining : 99, drop_rate_comm : 0, errors_comm : 0, errors_count1 : 0, errors_count2 : 0, errors_count3 : 0, errors_count4 : 0}
2025-11-18 17:34:55 [DEBUG] MAVLINK [POWER_STATUS] POWER_STATUS {Vcc : 5284, Vservo : 5011, flags : 5}
2025-11-18 17:34:55 [DEBUG] MAVLINK [MEMINFO] MEMINFO {brkval : 0, freemem : 65535, freemem32 : 570344}
2025-11-18 17:34:55 [DEBUG] MAVLINK [NAV_CONTROLLER_OUTPUT] NAV_CONTROLLER_OUTPUT {nav_roll : 0.00021465655299834907, nav_pitch : 0.00034067666274495423, nav_bearing : 101, target_bearing : 0, wp_dist : 0, alt_error : 0.0, aspd_error : 0.0, xtrack_error : 0.0}
2025-11-18 17:34:55 [DEBUG] MAVLINK [MISSION_CURRENT] MISSION_CURRENT {seq : 0, total : 0, mission_state : 1, mission_mode : 0}
2025-11-18 17:34:55 [DEBUG] MAVLINK [SERVO_OUTPUT_RAW] SERVO_OUTPUT_RAW {time_usec : 737406812, port : 0, servo1_raw : 1000, servo2_raw : 1000, servo3_raw : 1000, servo4_raw : 1000, servo5_raw : 0, servo6_raw : 0, servo7_raw : 0, servo8_raw : 0, servo9_raw : 0, servo10_raw : 0, servo11_raw : 0, servo12_raw : 0, servo13_raw : 0, servo14_raw : 0, servo15_raw : 0, servo16_raw : 0}
2025-11-18 17:34:55 [DEBUG] MAVLINK [RC_CHANNELS] RC_CHANNELS {time_boot_ms : 737406, chancount : 8, chan1_raw : 1500, chan2_raw : 1503, chan3_raw : 1011, chan4_raw : 1498, chan5_raw : 999, chan6_raw : 999, chan7_raw : 1500, chan8_raw : 1499, chan9_raw : 0, chan10_raw : 0, chan11_raw : 0, chan12_raw : 0, chan13_raw : 0, chan14_raw : 0, chan15_raw : 0, chan16_raw : 0, chan17_raw : 0, chan18_raw : 0, rssi : 255}
2025-11-18 17:34:55 [DEBUG] MAVLINK [RAW_IMU] RAW_IMU {time_usec : 737406843, xacc : -9, yacc : 38, zacc : -999, xgyro : 0, ygyro : 0, zgyro : -2, xmag : -73, ymag : -346, zmag : 103, id : 0, temperature : 4528}
2025-11-18 17:34:55 [DEBUG] MAVLINK [SCALED_IMU2] SCALED_IMU2 {time_boot_ms : 737406, xacc : -7, yacc : 35, zacc : -1000, xgyro : 3, ygyro : -1, zgyro : -3, xmag : -126, ymag : -378, zmag : 172, temperature : 4881}
2025-11-18 17:34:55 [DEBUG] MAVLINK [SCALED_IMU3] SCALED_IMU3 {time_boot_ms : 737406, xacc : -1, yacc : 26, zacc : -1001, xgyro : -7, ygyro : -1, zgyro : -1, xmag : 0, ymag : 0, zmag : 0, temperature : 4808}
2025-11-18 17:34:55 [DEBUG] MAVLINK [SCALED_PRESSURE] SCALED_PRESSURE {time_boot_ms : 737406, press_abs : 949.02490234375, press_diff : 0.0, temperature : 4682, temperature_press_diff : 0}
2025-11-18 17:34:55 [DEBUG] MAVLINK [SCALED_PRESSURE2] SCALED_PRESSURE2 {time_boot_ms : 737409, press_abs : 949.1094970703125, press_diff : 0.0, temperature : 4425, temperature_press_diff : 0}
2025-11-18 17:34:55 [DEBUG] MAVLINK [GPS_RAW_INT] GPS_RAW_INT {time_usec : 737283000, fix_type : 4, lat : 174481519, lon : 783810617, alt : 575430, eph : 89, epv : 143, vel : 3, cog : 7396, satellites_visible : 17, alt_ellipsoid : 501335, h_acc : 1251, v_acc : 1673, vel_acc : 295, hdg_acc : 0, yaw : 0}
2025-11-18 17:34:55 [DEBUG] MAVLINK [SYSTEM_TIME] SYSTEM_TIME {time_unix_usec : 1763467495824489, time_boot_ms : 737409}
2025-11-18 17:34:55 [DEBUG] MAVLINK [WIND] WIND {direction : -180.0, speed : 0.0, speed_z : 0.0}
2025-11-18 17:34:55 [DEBUG] MAVLINK [TERRAIN_REPORT] TERRAIN_REPORT {lat : 174481498, lon : 783810628, spacing : 100, terrain_height : 589.7798461914062, current_height : 0.0001406259834766388, pending : 0, loaded : 504}
2025-11-18 17:34:55 [DEBUG] MAVLINK [EKF_STATUS_REPORT] EKF_STATUS_REPORT {flags : 831, velocity_variance : 0.02332010492682457, pos_horiz_variance : 0.029099954292178154, pos_vert_variance : 0.0015829496551305056, compass_variance : 0.0011397497728466988, terrain_alt_variance : 0.0, airspeed_variance : 0.0}
2025-11-18 17:34:55 [DEBUG] MAVLINK [LOCAL_POSITION_NED] LOCAL_POSITION_NED {time_boot_ms : 737409, x : 0.6791874170303345, y : -2.805931806564331, z : -1.7753660678863525, vx : 0.02360006608068943, vy : 0.007732811383903027, vz : -0.0009254739852622151}
2025-11-18 17:34:55 [DEBUG] MAVLINK [VIBRATION] VIBRATION {time_usec : 737409448, vibration_x : 0.007796815596520901, vibration_y : 0.007459201384335756, vibration_z : 0.00892574805766344, clipping_0 : 27, clipping_1 : 54, clipping_2 : 15}
2025-11-18 17:34:55 [DEBUG] MAVLINK [BATTERY_STATUS] BATTERY_STATUS {id : 0, battery_function : 0, type : 0, temperature : 32767, voltages : [11114, 65535, 65535, 65535, 65535, 65535, 65535, 65535, 65535, 65535], current_battery : 1, current_consumed : 35, energy_consumed : 13, battery_remaining : 99, time_remaining : 0, charge_state : 1, voltages_ext : [0, 0, 0, 0], mode : 0, fault_bitmask : 0}
2025-11-18 17:34:55 [DEBUG] MAVLINK [MCU_STATUS] MCU_STATUS {id : 0, MCU_temperature : 4586, MCU_voltage : 3285, MCU_voltage_min : 3279, MCU_voltage_max : 3291}
2025-11-18 17:34:56 [DEBUG] MAVLINK [AHRS] AHRS {omegaIx : -0.00036682464997284114, omegaIy : 0.00012784692808054388, omegaIz : 0.0026047825813293457, accel_weight : 0.0, renorm_val : 0.0, error_rp : 0.008331340737640858, error_yaw : 0.001146093592979014}
2025-11-18 17:34:56 [DEBUG] MAVLINK [AHRS2] AHRS2 {roll : -0.0024418560788035393, pitch : -0.016325384378433228, yaw : 1.7757047414779663, altitude : 591.5199584960938, lat : 174481520, lng : 783810617}
2025-11-18 17:34:56 [DEBUG] MAVLINK [ATTITUDE] ATTITUDE {time_boot_ms : 737656, roll : -0.011049449443817139, pitch : -0.022696323692798615, yaw : 1.778692364692688, rollspeed : -0.0002574272803030908, pitchspeed : -0.00011497728701215237, yawspeed : -4.737405106425285e-06}
2025-11-18 17:34:56 [DEBUG] MAVLINK [GLOBAL_POSITION_INT] GLOBAL_POSITION_INT {time_boot_ms : 737656, lat : 174481499, lon : 783810627, alt : 589780, relative_alt : 5, vx : 1, vy : 0, vz : 0, hdg : 10191}
2025-11-18 17:34:56 [DEBUG] MAVLINK [VFR_HUD] VFR_HUD {airspeed : 0.02008805423974991, groundspeed : 0.020040307193994522, heading : 101, throttle : 0, alt : 589.7799682617188, climb : 0.0013841603649780154}
2025-11-18 17:34:56 [DEBUG] MAVLINK [SYS_STATUS] SYS_STATUS {onboard_control_sensors_present : 1399979055, onboard_control_sensors_enabled : 1130495023, onboard_control_sensors_health : 1198652431, load : 323, voltage_battery : 11112, current_battery : 1, battery_remaining : 99, drop_rate_comm : 0, errors_comm : 0, errors_count1 : 0, errors_count2 : 0, errors_count3 : 0, errors_count4 : 0}
2025-11-18 17:34:56 [DEBUG] MAVLINK [POWER_STATUS] POWER_STATUS {Vcc : 5274, Vservo : 5026, flags : 5}
2025-11-18 17:34:56 [DEBUG] MAVLINK [MEMINFO] MEMINFO {brkval : 0, freemem : 65535, freemem32 : 563584}
2025-11-18 17:34:56 [DEBUG] MAVLINK [NAV_CONTROLLER_OUTPUT] NAV_CONTROLLER_OUTPUT {nav_roll : 0.00021465650934260339, nav_pitch : 0.0003406766045372933, nav_bearing : 101, target_bearing : 0, wp_dist : 0, alt_error : 0.0, aspd_error : 0.0, xtrack_error : 0.0}
2025-11-18 17:34:56 [DEBUG] MAVLINK [MISSION_CURRENT] MISSION_CURRENT {seq : 0, total : 0, mission_state : 1, mission_mode : 0}
2025-11-18 17:34:56 [DEBUG] MAVLINK [SERVO_OUTPUT_RAW] SERVO_OUTPUT_RAW {time_usec : 737656798, port : 0, servo1_raw : 1000, servo2_raw : 1000, servo3_raw : 1000, servo4_raw : 1000, servo5_raw : 0, servo6_raw : 0, servo7_raw : 0, servo8_raw : 0, servo9_raw : 0, servo10_raw : 0, servo11_raw : 0, servo12_raw : 0, servo13_raw : 0, servo14_raw : 0, servo15_raw : 0, servo16_raw : 0}
2025-11-18 17:34:56 [DEBUG] MAVLINK [RC_CHANNELS] RC_CHANNELS {time_boot_ms : 737656, chancount : 8, chan1_raw : 1499, chan2_raw : 1503, chan3_raw : 1011, chan4_raw : 1499, chan5_raw : 999, chan6_raw : 999, chan7_raw : 1499, chan8_raw : 1499, chan9_raw : 0, chan10_raw : 0, chan11_raw : 0, chan12_raw : 0, chan13_raw : 0, chan14_raw : 0, chan15_raw : 0, chan16_raw : 0, chan17_raw : 0, chan18_raw : 0, rssi : 255}
2025-11-18 17:34:56 [DEBUG] MAVLINK [RAW_IMU] RAW_IMU {time_usec : 737656858, xacc : -9, yacc : 38, zacc : -999, xgyro : 0, ygyro : 0, zgyro : -2, xmag : -74, ymag : -345, zmag : 104, id : 0, temperature : 4480}
2025-11-18 17:34:56 [DEBUG] MAVLINK [SCALED_IMU2] SCALED_IMU2 {time_boot_ms : 737659, xacc : -5, yacc : 33, zacc : -1000, xgyro : 1, ygyro : -2, zgyro : 0, xmag : -138, ymag : -397, zmag : 165, temperature : 4880}
2025-11-18 17:34:56 [DEBUG] MAVLINK [SCALED_IMU3] SCALED_IMU3 {time_boot_ms : 737659, xacc : -2, yacc : 28, zacc : -1002, xgyro : -6, ygyro : 0, zgyro : -2, xmag : 0, ymag : 0, zmag : 0, temperature : 4808}
2025-11-18 17:34:56 [DEBUG] MAVLINK [SCALED_PRESSURE] SCALED_PRESSURE {time_boot_ms : 737659, press_abs : 949.0280151367188, press_diff : 0.0, temperature : 4682, temperature_press_diff : 0}
2025-11-18 17:34:56 [DEBUG] MAVLINK [SCALED_PRESSURE2] SCALED_PRESSURE2 {time_boot_ms : 737659, press_abs : 949.1196899414062, press_diff : 0.0, temperature : 4425, temperature_press_diff : 0}
2025-11-18 17:34:56 [DEBUG] MAVLINK [GPS_RAW_INT] GPS_RAW_INT {time_usec : 737483000, fix_type : 4, lat : 174481521, lon : 783810617, alt : 575480, eph : 89, epv : 143, vel : 5, cog : 7396, satellites_visible : 17, alt_ellipsoid : 501386, h_acc : 1247, v_acc : 1666, vel_acc : 289, hdg_acc : 0, yaw : 0}
2025-11-18 17:34:56 [DEBUG] MAVLINK [SYSTEM_TIME] SYSTEM_TIME {time_unix_usec : 1763467496074486, time_boot_ms : 737659}
2025-11-18 17:34:56 [DEBUG] MAVLINK [WIND] WIND {direction : -180.0, speed : 0.0, speed_z : 0.0}
2025-11-18 17:34:56 [DEBUG] MAVLINK [TERRAIN_REPORT] TERRAIN_REPORT {lat : 174481499, lon : 783810627, spacing : 100, terrain_height : 589.7797241210938, current_height : 0.0002626962959766388, pending : 0, loaded : 504}
2025-11-18 17:34:56 [DEBUG] MAVLINK [EKF_STATUS_REPORT] EKF_STATUS_REPORT {flags : 831, velocity_variance : 0.026512935757637024, pos_horiz_variance : 0.03047477826476097, pos_vert_variance : 0.0011914923088625073, compass_variance : 0.00019804888870567083, terrain_alt_variance : 0.0, airspeed_variance : 0.0}
2025-11-18 17:34:56 [DEBUG] MAVLINK [LOCAL_POSITION_NED] LOCAL_POSITION_NED {time_boot_ms : 737661, x : 0.6907294988632202, y : -2.816423177719116, z : -1.7750864028930664, vx : 0.019389275461435318, vy : 0.0048402221873402596, vz : -0.0013622223632410169}
2025-11-18 17:34:56 [DEBUG] MAVLINK [VIBRATION] VIBRATION {time_usec : 737661942, vibration_x : 0.007039129268378019, vibration_y : 0.007389592472463846, vibration_z : 0.007243471685796976, clipping_0 : 27, clipping_1 : 54, clipping_2 : 15}
2025-11-18 17:34:56 [DEBUG] MAVLINK [BATTERY_STATUS] BATTERY_STATUS {id : 0, battery_function : 0, type : 0, temperature : 32767, voltages : [11112, 65535, 65535, 65535, 65535, 65535, 65535, 65535, 65535, 65535], current_battery : 1, current_consumed : 35, energy_consumed : 13, battery_remaining : 99, time_remaining : 0, charge_state : 1, voltages_ext : [0, 0, 0, 0], mode : 0, fault_bitmask : 0}
2025-11-18 17:34:56 [DEBUG] MAVLINK [MCU_STATUS] MCU_STATUS {id : 0, MCU_temperature : 4584, MCU_voltage : 3285, MCU_voltage_min : 3276, MCU_voltage_max : 3294}
2025-11-18 17:34:56 [DEBUG] MAVLINK [AHRS] AHRS {omegaIx : -0.00036598986480385065, omegaIy : 0.00012815379886887968, omegaIz : 0.0026056014467030764, accel_weight : 0.0, renorm_val : 0.0, error_rp : 0.011781428009271622, error_yaw : 0.0009718370856717229}
2025-11-18 17:34:56 [DEBUG] MAVLINK [AHRS2] AHRS2 {roll : -0.0034273143392056227, pitch : -0.016592977568507195, yaw : 1.7757164239883423, altitude : 591.3499755859375, lat : 174481522, lng : 783810616}
2025-11-18 17:34:56 [DEBUG] MAVLINK [ATTITUDE] ATTITUDE {time_boot_ms : 737906, roll : -0.01098504289984703, pitch : -0.022661836817860603, yaw : 1.7786673307418823, rollspeed : 0.00020764709915965796, pitchspeed : 7.79745023464784e-05, yawspeed : 6.657233461737633e-05}
2025-11-18 17:34:56 [DEBUG] MAVLINK [GLOBAL_POSITION_INT] GLOBAL_POSITION_INT {time_boot_ms : 737906, lat : 174481500, lon : 783810626, alt : 589780, relative_alt : 1, vx : 1, vy : 0, vz : 0, hdg : 10191}
2025-11-18 17:34:56 [DEBUG] MAVLINK [VFR_HUD] VFR_HUD {airspeed : 0.017448244616389275, groundspeed : 0.017440885305404663, heading : 101, throttle : 0, alt : 589.7799682617188, climb : 0.0005066709127277136}
2025-11-18 17:34:56 [DEBUG] MAVLINK [SYS_STATUS] SYS_STATUS {onboard_control_sensors_present : 1399979055, onboard_control_sensors_enabled : 1130495023, onboard_control_sensors_health : 1198652431, load : 314, voltage_battery : 11110, current_battery : 1, battery_remaining : 99, drop_rate_comm : 0, errors_comm : 0, errors_count1 : 0, errors_count2 : 0, errors_count3 : 0, errors_count4 : 0}
2025-11-18 17:34:56 [DEBUG] MAVLINK [POWER_STATUS] POWER_STATUS {Vcc : 5268, Vservo : 5033, flags : 5}
2025-11-18 17:34:56 [DEBUG] MAVLINK [MEMINFO] MEMINFO {brkval : 0, freemem : 65535, freemem32 : 563584}
2025-11-18 17:34:56 [DEBUG] MAVLINK [NAV_CONTROLLER_OUTPUT] NAV_CONTROLLER_OUTPUT {nav_roll : 0.00021465637837536633, nav_pitch : 0.00034067651722580194, nav_bearing : 101, target_bearing : 0, wp_dist : 0, alt_error : 0.0, aspd_error : 0.0, xtrack_error : 0.0}
2025-11-18 17:34:56 [DEBUG] MAVLINK [MISSION_CURRENT] MISSION_CURRENT {seq : 0, total : 0, mission_state : 1, mission_mode : 0}
2025-11-18 17:34:56 [DEBUG] MAVLINK [SERVO_OUTPUT_RAW] SERVO_OUTPUT_RAW {time_usec : 737906862, port : 0, servo1_raw : 1000, servo2_raw : 1000, servo3_raw : 1000, servo4_raw : 1000, servo5_raw : 0, servo6_raw : 0, servo7_raw : 0, servo8_raw : 0, servo9_raw : 0, servo10_raw : 0, servo11_raw : 0, servo12_raw : 0, servo13_raw : 0, servo14_raw : 0, servo15_raw : 0, servo16_raw : 0}
2025-11-18 17:34:56 [DEBUG] MAVLINK [RC_CHANNELS] RC_CHANNELS {time_boot_ms : 737906, chancount : 8, chan1_raw : 1499, chan2_raw : 1504, chan3_raw : 1011, chan4_raw : 1498, chan5_raw : 999, chan6_raw : 999, chan7_raw : 1499, chan8_raw : 1500, chan9_raw : 0, chan10_raw : 0, chan11_raw : 0, chan12_raw : 0, chan13_raw : 0, chan14_raw : 0, chan15_raw : 0, chan16_raw : 0, chan17_raw : 0, chan18_raw : 0, rssi : 255}
2025-11-18 17:34:56 [DEBUG] MAVLINK [RAW_IMU] RAW_IMU {time_usec : 737906892, xacc : -9, yacc : 38, zacc : -999, xgyro : 0, ygyro : 0, zgyro : -2, xmag : -74, ymag : -346, zmag : 104, id : 0, temperature : 4528}
2025-11-18 17:34:56 [DEBUG] MAVLINK [SCALED_IMU2] SCALED_IMU2 {time_boot_ms : 737906, xacc : -8, yacc : 35, zacc : -999, xgyro : 3, ygyro : 0, zgyro : -3, xmag : -133, ymag : -380, zmag : 179, temperature : 4881}
2025-11-18 17:34:56 [DEBUG] MAVLINK [SCALED_IMU3] SCALED_IMU3 {time_boot_ms : 737909, xacc : -1, yacc : 28, zacc : -1001, xgyro : -7, ygyro : 0, zgyro : -2, xmag : 0, ymag : 0, zmag : 0, temperature : 4808}
2025-11-18 17:34:56 [DEBUG] MAVLINK [SCALED_PRESSURE] SCALED_PRESSURE {time_boot_ms : 737909, press_abs : 949.0484008789062, press_diff : 0.0, temperature : 4682, temperature_press_diff : 0}
2025-11-18 17:34:56 [DEBUG] MAVLINK [SCALED_PRESSURE2] SCALED_PRESSURE2 {time_boot_ms : 737909, press_abs : 949.0845947265625, press_diff : 0.0, temperature : 4425, temperature_press_diff : 0}
2025-11-18 17:34:56 [DEBUG] MAVLINK [GPS_RAW_INT] GPS_RAW_INT {time_usec : 737683000, fix_type : 4, lat : 174481522, lon : 783810616, alt : 575510, eph : 89, epv : 143, vel : 0, cog : 7396, satellites_visible : 17, alt_ellipsoid : 501416, h_acc : 1243, v_acc : 1660, vel_acc : 275, hdg_acc : 0, yaw : 0}
2025-11-18 17:34:56 [DEBUG] MAVLINK [SYSTEM_TIME] SYSTEM_TIME {time_unix_usec : 1763467496324485, time_boot_ms : 737909}
2025-11-18 17:34:56 [DEBUG] MAVLINK [WIND] WIND {direction : -180.0, speed : 0.0, speed_z : 0.0}
2025-11-18 17:34:56 [DEBUG] MAVLINK [TERRAIN_REPORT] TERRAIN_REPORT {lat : 174481500, lon : 783810626, spacing : 100, terrain_height : 589.7794799804688, current_height : 0.0005068369209766388, pending : 0, loaded : 504}
2025-11-18 17:34:56 [DEBUG] MAVLINK [EKF_STATUS_REPORT] EKF_STATUS_REPORT {flags : 831, velocity_variance : 0.009735897183418274, pos_horiz_variance : 0.031055931001901627, pos_vert_variance : 0.009535004384815693, compass_variance : 0.0006798536633141339, terrain_alt_variance : 0.0, airspeed_variance : 0.0}
2025-11-18 17:34:56 [DEBUG] MAVLINK [LOCAL_POSITION_NED] LOCAL_POSITION_NED {time_boot_ms : 737909, x : 0.7040975689888, y : -2.8268802165985107, z : -1.7718642950057983, vx : 0.01735713891685009, vy : 0.0020525744184851646, vz : -0.0004983886028639972}
2025-11-18 17:34:56 [DEBUG] MAVLINK [VIBRATION] VIBRATION {time_usec : 737912016, vibration_x : 0.007821229286491871, vibration_y : 0.007803397718816996, vibration_z : 0.00897197425365448, clipping_0 : 27, clipping_1 : 54, clipping_2 : 15}
2025-11-18 17:34:56 [DEBUG] MAVLINK [BATTERY_STATUS] BATTERY_STATUS {id : 0, battery_function : 0, type : 0, temperature : 32767, voltages : [11110, 65535, 65535, 65535, 65535, 65535, 65535, 65535, 65535, 65535], current_battery : 1, current_consumed : 35, energy_consumed : 13, battery_remaining : 99, time_remaining : 0, charge_state : 1, voltages_ext : [0, 0, 0, 0], mode : 0, fault_bitmask : 0}
2025-11-18 17:34:56 [DEBUG] MAVLINK [MCU_STATUS] MCU_STATUS {id : 0, MCU_temperature : 4584, MCU_voltage : 3285, MCU_voltage_min : 3279, MCU_voltage_max : 3291}
2025-11-18 17:34:56 [INFO] Taking off to 3.0 meters...
2025-11-18 17:34:56 [DEBUG] Altitude: 0.00m
2025-11-18 17:34:56 [DEBUG] MAVLINK [COMMAND_ACK] COMMAND_ACK {command : 22, result : 0, progress : 0, result_param2 : 0, target_system : 255, target_component : 0}
2025-11-18 17:34:56 [DEBUG] MAVLINK [HEARTBEAT] HEARTBEAT {type : 6, autopilot : 8, base_mode : 192, custom_mode : 0, system_status : 4, mavlink_version : 3}
2025-11-18 17:34:56 [DEBUG] MAVLINK [AHRS] AHRS {omegaIx : -0.0003635966859292239, omegaIy : 0.00013814594422001392, omegaIz : 0.002606556750833988, accel_weight : 0.0, renorm_val : 0.0, error_rp : 0.011683044955134392, error_yaw : 0.0007832948467694223}
2025-11-18 17:34:56 [DEBUG] MAVLINK [AHRS2] AHRS2 {roll : -0.004437187220901251, pitch : -0.01682242937386036, yaw : 1.775717854499817, altitude : 591.5299682617188, lat : 174481524, lng : 783810614}
2025-11-18 17:34:56 [DEBUG] MAVLINK [ATTITUDE] ATTITUDE {time_boot_ms : 738156, roll : -0.010969214141368866, pitch : -0.022617042064666748, yaw : 1.7786588668823242, rollspeed : -0.00040176240145228803, pitchspeed : -0.000361510319635272, yawspeed : -0.0003205486573278904}
2025-11-18 17:34:56 [DEBUG] MAVLINK [GLOBAL_POSITION_INT] GLOBAL_POSITION_INT {time_boot_ms : 738156, lat : 174481501, lon : 783810625, alt : 589770, relative_alt : -3, vx : 1, vy : 0, vz : 0, hdg : 10190}
2025-11-18 17:34:56 [DEBUG] MAVLINK [VFR_HUD] VFR_HUD {airspeed : 0.017251180484890938, groundspeed : 0.017239557579159737, heading : 101, throttle : 0, alt : 589.7699584960938, climb : -0.0006331935292109847}
2025-11-18 17:34:56 [DEBUG] MAVLINK [SYS_STATUS] SYS_STATUS {onboard_control_sensors_present : 1399979055, onboard_control_sensors_enabled : 1130495023, onboard_control_sensors_health : 1198652431, load : 329, voltage_battery : 11108, current_battery : 1, battery_remaining : 99, drop_rate_comm : 0, errors_comm : 0, errors_count1 : 0, errors_count2 : 0, errors_count3 : 0, errors_count4 : 0}
2025-11-18 17:34:56 [DEBUG] MAVLINK [POWER_STATUS] POWER_STATUS {Vcc : 5275, Vservo : 5040, flags : 5}
2025-11-18 17:34:56 [DEBUG] MAVLINK [MEMINFO] MEMINFO {brkval : 0, freemem : 65535, freemem32 : 563584}
2025-11-18 17:34:56 [DEBUG] MAVLINK [NAV_CONTROLLER_OUTPUT] NAV_CONTROLLER_OUTPUT {nav_roll : 0.0002146565675502643, nav_pitch : 0.0003406765463296324, nav_bearing : 101, target_bearing : 0, wp_dist : 0, alt_error : 0.0, aspd_error : 0.0, xtrack_error : 0.0}
2025-11-18 17:34:56 [DEBUG] MAVLINK [MISSION_CURRENT] MISSION_CURRENT {seq : 0, total : 0, mission_state : 1, mission_mode : 0}
2025-11-18 17:34:56 [DEBUG] MAVLINK [SERVO_OUTPUT_RAW] SERVO_OUTPUT_RAW {time_usec : 738156887, port : 0, servo1_raw : 1000, servo2_raw : 1000, servo3_raw : 1000, servo4_raw : 1000, servo5_raw : 0, servo6_raw : 0, servo7_raw : 0, servo8_raw : 0, servo9_raw : 0, servo10_raw : 0, servo11_raw : 0, servo12_raw : 0, servo13_raw : 0, servo14_raw : 0, servo15_raw : 0, servo16_raw : 0}
2025-11-18 17:34:56 [DEBUG] MAVLINK [RC_CHANNELS] RC_CHANNELS {time_boot_ms : 738156, chancount : 8, chan1_raw : 1499, chan2_raw : 1504, chan3_raw : 1011, chan4_raw : 1499, chan5_raw : 999, chan6_raw : 999, chan7_raw : 1499, chan8_raw : 1500, chan9_raw : 0, chan10_raw : 0, chan11_raw : 0, chan12_raw : 0, chan13_raw : 0, chan14_raw : 0, chan15_raw : 0, chan16_raw : 0, chan17_raw : 0, chan18_raw : 0, rssi : 255}
2025-11-18 17:34:56 [DEBUG] MAVLINK [RAW_IMU] RAW_IMU {time_usec : 738156920, xacc : -10, yacc : 38, zacc : -1000, xgyro : 0, ygyro : 0, zgyro : -2, xmag : -74, ymag : -346, zmag : 103, id : 0, temperature : 4528}
2025-11-18 17:34:56 [DEBUG] MAVLINK [SCALED_IMU2] SCALED_IMU2 {time_boot_ms : 738156, xacc : -6, yacc : 36, zacc : -997, xgyro : 1, ygyro : -1, zgyro : -2, xmag : -141, ymag : -382, zmag : 171, temperature : 4881}
2025-11-18 17:34:56 [DEBUG] MAVLINK [SCALED_IMU3] SCALED_IMU3 {time_boot_ms : 738156, xacc : -1, yacc : 28, zacc : -1000, xgyro : -7, ygyro : 0, zgyro : 0, xmag : 0, ymag : 0, zmag : 0, temperature : 4809}
2025-11-18 17:34:56 [DEBUG] MAVLINK [SCALED_PRESSURE] SCALED_PRESSURE {time_boot_ms : 738156, press_abs : 949.0278930664062, press_diff : 0.0, temperature : 4682, temperature_press_diff : 0}
2025-11-18 17:34:56 [DEBUG] MAVLINK [SCALED_PRESSURE2] SCALED_PRESSURE2 {time_boot_ms : 738159, press_abs : 949.1029663085938, press_diff : 0.0, temperature : 4425, temperature_press_diff : 0}
2025-11-18 17:34:56 [DEBUG] MAVLINK [GPS_RAW_INT] GPS_RAW_INT {time_usec : 738083000, fix_type : 4, lat : 174481524, lon : 783810614, alt : 575530, eph : 89, epv : 143, vel : 5, cog : 7396, satellites_visible : 17, alt_ellipsoid : 501436, h_acc : 1250, v_acc : 1670, vel_acc : 302, hdg_acc : 0, yaw : 0}
2025-11-18 17:34:56 [DEBUG] MAVLINK [SYSTEM_TIME] SYSTEM_TIME {time_unix_usec : 1763467496574414, time_boot_ms : 738159}
2025-11-18 17:34:56 [DEBUG] MAVLINK [WIND] WIND {direction : -180.0, speed : 0.0, speed_z : 0.0}
2025-11-18 17:34:56 [DEBUG] MAVLINK [TERRAIN_REPORT] TERRAIN_REPORT {lat : 174481501, lon : 783810625, spacing : 100, terrain_height : 589.7794189453125, current_height : -0.009432127699255943, pending : 0, loaded : 504}
2025-11-18 17:34:56 [DEBUG] MAVLINK [EKF_STATUS_REPORT] EKF_STATUS_REPORT {flags : 831, velocity_variance : 0.024514958262443542, pos_horiz_variance : 0.03180409595370293, pos_vert_variance : 0.0004397337033879012, compass_variance : 0.0009517878643237054, terrain_alt_variance : 0.0, airspeed_variance : 0.0}
2025-11-18 17:34:56 [DEBUG] MAVLINK [LOCAL_POSITION_NED] LOCAL_POSITION_NED {time_boot_ms : 738159, x : 0.7154322266578674, y : -2.8361308574676514, z : -1.766737699508667, vx : 0.017178690060973167, vy : -0.0011639992007985711, vz : 0.0006686344859190285}
2025-11-18 17:34:56 [DEBUG] MAVLINK [VIBRATION] VIBRATION {time_usec : 738159316, vibration_x : 0.009053824469447136, vibration_y : 0.006915031932294369, vibration_z : 0.009059999138116837, clipping_0 : 27, clipping_1 : 54, clipping_2 : 15}
2025-11-18 17:34:56 [DEBUG] MAVLINK [BATTERY_STATUS] BATTERY_STATUS {id : 0, battery_function : 0, type : 0, temperature : 32767, voltages : [11108, 65535, 65535, 65535, 65535, 65535, 65535, 65535, 65535, 65535], current_battery : 1, current_consumed : 35, energy_consumed : 13, battery_remaining : 99, time_remaining : 0, charge_state : 1, voltages_ext : [0, 0, 0, 0], mode : 0, fault_bitmask : 0}
2025-11-18 17:34:56 [DEBUG] MAVLINK [MCU_STATUS] MCU_STATUS {id : 0, MCU_temperature : 4586, MCU_voltage : 3285, MCU_voltage_min : 3278, MCU_voltage_max : 3291}
2025-11-18 17:34:56 [DEBUG] MAVLINK [HEARTBEAT] HEARTBEAT {type : 27, autopilot : 8, base_mode : 4, custom_mode : 0, system_status : 4, mavlink_version : 3}
2025-11-18 17:34:56 [DEBUG] MAVLINK [HEARTBEAT] HEARTBEAT {type : 2, autopilot : 3, base_mode : 217, custom_mode : 4, system_status : 3, mavlink_version : 3}
2025-11-18 17:34:56 [DEBUG] MAVLINK [AHRS] AHRS {omegaIx : -0.00036153686232864857, omegaIy : 0.00014191669470164925, omegaIz : 0.0026050580199807882, accel_weight : 0.0, renorm_val : 0.0, error_rp : 0.011499200016260147, error_yaw : 0.0010832443367689848}
2025-11-18 17:34:56 [DEBUG] MAVLINK [AHRS2] AHRS2 {roll : -0.004694506525993347, pitch : -0.016855061054229736, yaw : 1.775708556175232, altitude : 591.489990234375, lat : 174481525, lng : 783810612}
2025-11-18 17:34:56 [DEBUG] MAVLINK [ATTITUDE] ATTITUDE {time_boot_ms : 738406, roll : -0.010906927287578583, pitch : -0.02240331843495369, yaw : 1.7786650657653809, rollspeed : -0.00011385881225578487, pitchspeed : -0.00013360970478970557, yawspeed : 0.00012248964048922062}
2025-11-18 17:34:56 [DEBUG] MAVLINK [GLOBAL_POSITION_INT] GLOBAL_POSITION_INT {time_boot_ms : 738406, lat : 174481503, lon : 783810623, alt : 589770, relative_alt : -5, vx : 1, vy : 0, vz : 0, hdg : 10191}
2025-11-18 17:34:56 [DEBUG] MAVLINK [VFR_HUD] VFR_HUD {airspeed : 0.020266180858016014, groundspeed : 0.02022816427052021, heading : 101, throttle : 0, alt : 589.7699584960938, climb : -0.0012407724279910326}
2025-11-18 17:34:56 [DEBUG] MAVLINK [SYS_STATUS] SYS_STATUS {onboard_control_sensors_present : 1399979055, onboard_control_sensors_enabled : 1130495023, onboard_control_sensors_health : 1198652431, load : 321, voltage_battery : 11109, current_battery : 2, battery_remaining : 99, drop_rate_comm : 0, errors_comm : 0, errors_count1 : 0, errors_count2 : 0, errors_count3 : 0, errors_count4 : 0}
2025-11-18 17:34:56 [DEBUG] MAVLINK [POWER_STATUS] POWER_STATUS {Vcc : 5264, Vservo : 5023, flags : 5}
2025-11-18 17:34:56 [DEBUG] MAVLINK [MEMINFO] MEMINFO {brkval : 0, freemem : 65535, freemem32 : 563584}
2025-11-18 17:34:56 [DEBUG] MAVLINK [NAV_CONTROLLER_OUTPUT] NAV_CONTROLLER_OUTPUT {nav_roll : 0.00021465664030984044, nav_pitch : 0.0003406764881219715, nav_bearing : 101, target_bearing : 0, wp_dist : 0, alt_error : 0.0, aspd_error : 0.0, xtrack_error : 0.0}
2025-11-18 17:34:56 [DEBUG] MAVLINK [MISSION_CURRENT] MISSION_CURRENT {seq : 0, total : 0, mission_state : 1, mission_mode : 0}
